$GPGGA,162338,4738.9016,N,12218.7116,W,2,05,02,+0004,M,-018,M,00,0000*73,1679675020.58892
$GPVTG,142.2,T,,,006.1,N,011.2,K*2D,1679675020.661798
$WIMWV,033,R,010,N,A*22,1679675020.75389
$SDDBT,00031.4,f,0009.6,M,0005.2,F*08,1679675021.310921
$GPHDT,141.4,T*35,1679675021.360842
$SDDBS,00034.7,f,0010.6,M,0005.7,F*04,1679675021.360842
$GPGGA,162339,4738.9003,N,12218.7092,W,2,05,02,+0004,M,-018,M,00,0000*7B,1679675021.593775
$SDDPT,0009.6,001.0*69,1679675021.593775
$GPVTG,141.9,T,,,006.1,N,011.3,K*24,1679675021.71029
$PFEC,SDvrm,0000.0*70,1679675021.71029
$WIMWV,036,R,009,N,A*2F,1679675021.810127
$YCMTW,094.82,C*0E,1679675021.810127
$VWVHW,,T,,M,05.8,N,10.8,K*50,1679675021.810127
$GPHDT,141.3,T*32,1679675022.310186
$GPGGA,162340,4738.8989,N,12218.7088,W,2,05,02,+0004,M,-018,M,00,0000*74,1679675022.583636
$GPVTG,141.9,T,,,006.2,N,011.4,K*20,1679675022.656231
$WIMWV,035,R,011,N,A*25,1679675022.851997
$SDDBT,00032.1,f,0009.8,M,0005.3,F*01,1679675023.31072
$GPHDT,140.9,T*39,1679675023.360576
$SDDBS,00035.4,f,0010.8,M,0005.9,F*06,1679675023.360576
$GPGGA,162341,4738.8974,N,12218.7064,W,2,05,02,+0004,M,-018,M,00,0000*75,1679675023.593413
$SDDPT,0009.8,001.0*67,1679675023.593413
$GPVTG,141.8,T,,,006.2,N,011.5,K*20,1679675023.709775
$PFEC,SDvrm,0000.0*70,1679675023.709775
$YCMTW,094.82,C*0E,1679675023.709775
$VWVHW,,T,,M,05.8,N,10.8,K*50,1679675023.709775
$WIMWV,040,R,011,N,A*27,1679675023.924154
$GPHDT,140.2,T*32,1679675024.310577
$GPGGA,162342,4738.8961,N,12218.7061,W,2,05,02,+0004,M,-018,M,00,0000*77,1679675024.584127
$GPVTG,141.5,T,,,006.2,N,011.6,K*2E,1679675024.656708
$WIMWV,048,R,011,N,A*2F,1679675024.947558
$SDDBT,00032.1,f,0009.8,M,0005.3,F*01,1679675025.311405
$GPHDT,139.1,T*3F,1679675025.361232
$SDDBS,00035.4,f,0010.8,M,0005.9,F*06,1679675025.361232
$GPGGA,162343,4738.8946,N,12218.7037,W,2,05,02,+0004,M,-018,M,00,0000*70,1679675025.594221
$SDDPT,0009.8,001.0*67,1679675025.594221
$GPVTG,141.4,T,,,006.3,N,011.6,K*2E,1679675025.71072
$PFEC,SDvrm,0000.0*70,1679675025.71072
$YCMTW,094.82,C*0E,1679675025.71072
$VWVHW,,T,,M,05.8,N,10.8,K*50,1679675025.71072
$WIMWV,046,R,010,N,A*20,1679675025.99721
$GPHDT,137.8,T*38,1679675026.310215
$GPGGA,162344,4738.8932,N,12218.7013,W,2,05,02,+0004,M,-018,M,00,0000*72,1679675026.584023
$GPVTG,141.3,T,,,006.3,N,011.6,K*29,1679675026.656515
$WIMWV,041,R,010,N,A*27,1679675027.044914
$SDDBT,00032.1,f,0009.8,M,0005.3,F*01,1679675027.310996
$GPHDT,136.5,T*34,1679675027.361103
$SDDBS,00035.4,f,0010.8,M,0005.9,F*06,1679675027.361103
$GPGGA,162345,4738.8919,N,12218.7009,W,2,05,02,+0004,M,-018,M,00,0000*71,1679675027.594047
$SDDPT,0009.8,001.0*67,1679675027.594047
$GPVTG,141.1,T,,,006.3,N,011.7,K*2A,1679675027.710504
$PFEC,SDvrm,0000.0*70,1679675027.710504
$YCMTW,094.82,C*0E,1679675027.710504
$VWVHW,,T,,M,05.6,N,10.4,K*52,1679675027.710504
$WIMWV,033,R,011,N,A*23,1679675028.093671
$GPHDT,135.1,T*33,1679675028.310279
$GPGGA,162346,4738.8905,N,12218.6986,W,2,05,02,+0004,M,-018,M,00,0000*70,1679675028.583878
$GPVTG,140.6,T,,,006.3,N,011.7,K*2C,1679675028.656754
$WIMWV,037,R,012,N,A*24,1679675029.141471
$SDDBT,00032.1,f,0009.8,M,0005.3,F*01,1679675029.310905
$GPHDT,133.8,T*3C,1679675029.36068
$SDDBS,00035.4,f,0010.8,M,0005.9,F*06,1679675029.36068
$GPGGA,162347,4738.8893,N,12218.6964,W,2,05,02,+0004,M,-018,M,00,0000*73,1679675029.593738
$SDDPT,0009.8,001.0*67,1679675029.593738
$GPVTG,139.8,T,,,006.3,N,011.7,K*2C,1679675029.710358
$PFEC,SDvrm,0000.0*70,1679675029.710358
$YCMTW,094.82,C*0E,1679675029.710358
$VWVHW,,T,,M,05.4,N,10.0,K*54,1679675029.710358
$WIMWV,039,R,012,N,A*2A,1679675030.188619
$GPHDT,132.9,T*3C,1679675030.310106
$GPGGA,162348,4738.8880,N,12218.6961,W,2,05,02,+0004,M,-018,M,00,0000*7B,1679675030.583562
$GPVTG,138.9,T,,,006.3,N,011.7,K*2C,1679675030.656689
$WIMWV,037,R,012,N,A*24,1679675031.244223
$SDDBT,00031.8,f,0009.7,M,0005.3,F*04,1679675031.311143
$GPHDT,132.1,T*34,1679675031.361038
$SDDBS,00035.1,f,0010.7,M,0005.8,F*0D,1679675031.361038
$GPGGA,162349,4738.8868,N,12218.6939,W,2,05,02,+0004,M,-018,M,00,0000*71,1679675031.593733
$SDDPT,0009.7,001.0*68,1679675031.593733
$GPVTG,137.9,T,,,006.3,N,011.7,K*23,1679675031.727078
$PFEC,SDvrm,0000.0*70,1679675031.727078
$YCMTW,094.82,C*0E,1679675031.727078
$VWVHW,,T,,M,05.4,N,10.0,K*54,1679675031.727078
$WIMWV,039,R,012,N,A*2A,1679675032.293429
$GPHDT,131.6,T*30,1679675032.326687
$GPGGA,162350,4738.8856,N,12218.6918,W,2,05,02,+0004,M,-018,M,00,0000*77,1679675032.584309
$GPVTG,136.9,T,,,006.3,N,011.7,K*22,1679675032.657094
$SDDBT,00030.8,f,0009.4,M,0005.1,F*04,1679675033.31129
$WIMWV,040,R,012,N,A*24,1679675033.361202
$GPHDT,131.2,T*34,1679675033.411067
$SDDBS,00034.1,f,0010.4,M,0005.6,F*01,1679675033.411067
$GPGGA,162351,4738.8844,N,12218.6897,W,2,05,02,+0004,M,-018,M,00,0000*73,1679675033.643794
$SDDPT,0009.4,001.0*6B,1679675033.643794
$GPVTG,135.7,T,,,006.3,N,011.8,K*20,1679675033.777029
$PFEC,SDvrm,0000.0*70,1679675033.777029
$YCMTW,094.82,C*0E,1679675033.777029
$VWVHW,,T,,M,05.8,N,10.8,K*50,1679675033.777029
$GPHDT,131.0,T*36,1679675034.310773
$WIMWV,036,R,011,N,A*26,1679675034.382442
$GPGGA,162352,4738.8832,N,12218.6876,W,2,05,02,+0004,M,-018,M,00,0000*7E,1679675034.583964
$GPVTG,134.7,T,,,006.4,N,011.8,K*26,1679675034.656773
$SDDBT,00030.1,f,0009.2,M,0005.0,F*0A,1679675035.311664
$GPHDT,130.9,T*3E,1679675035.361628
$SDDBS,00033.4,f,0010.2,M,0005.5,F*06,1679675035.361628
$WIMWV,041,R,012,N,A*25,1679675035.494841
$GPGGA,162353,4738.8819,N,12218.6855,W,2,05,02,+0004,M,-018,M,00,0000*77,1679675035.644523
$SDDPT,0009.2,001.0*6D,1679675035.644523
$GPVTG,133.9,T,,,006.4,N,011.8,K*2F,1679675035.777686
$PFEC,SDvrm,0000.0*70,1679675035.777686
$YCMTW,094.82,C*0E,1679675035.777686
$VWVHW,,T,,M,05.8,N,10.8,K*50,1679675035.777686
$GPHDT,130.9,T*3E,1679675036.311085
$GPGGA,162354,4738.8807,N,12218.6835,W,2,05,02,+0004,M,-018,M,00,0000*79,1679675036.58492
$WIMWV,038,R,011,N,A*28,1679675036.634414
$GPVTG,133.2,T,,,006.4,N,011.8,K*24,1679675036.701337
$SDDBT,00029.5,f,0009.0,M,0004.9,F*0C,1679675037.311859
$GPHDT,131.0,T*36,1679675037.361847
$SDDBS,00032.8,f,0010.0,M,0005.4,F*08,1679675037.361847
$GPGGA,162355,4738.8795,N,12218.6814,W,2,05,02,+0004,M,-018,M,00,0000*7F,1679675037.594822
$SDDPT,0009.0,001.0*6F,1679675037.594822
$WIMWV,041,R,010,N,A*27,1679675037.694712
$GPVTG,132.5,T,,,006.4,N,011.8,K*22,1679675037.777897
$PFEC,SDvrm,0000.0*70,1679675037.777897
$YCMTW,094.82,C*0E,1679675037.777897
$VWVHW,,T,,M,05.6,N,10.4,K*52,1679675037.777897
$GPHDT,131.2,T*34,1679675038.311242
$GPGGA,162356,4738.8783,N,12218.6794,W,2,05,02,+0004,M,-018,M,00,0000*7C,1679675038.584922
$WIMWV,048,R,010,N,A*2E,1679675038.634499
$GPVTG,132.0,T,,,006.4,N,011.8,K*27,1679675038.701435
$SDDBT,00029.8,f,0009.1,M,0004.9,F*00,1679675039.311814
$GPHDT,131.4,T*32,1679675039.361787
$SDDBS,00033.1,f,0010.1,M,0005.5,F*00,1679675039.361787
$GPGGA,162357,4738.8771,N,12218.6774,W,2,05,02,+0004,M,-018,M,00,0000*7E,1679675039.594826
$SDDPT,0009.1,001.0*6E,1679675039.594826
$WIMWV,044,R,010,N,A*22,1679675039.694603
$GPVTG,131.6,T,,,006.4,N,011.9,K*23,1679675039.77788
$PFEC,SDvrm,0000.0*70,1679675039.77788
$YCMTW,094.82,C*0E,1679675039.77788
$VWVHW,,T,,M,06.2,N,11.5,K*55,1679675039.77788
$GPHDT,131.3,T*35,1679675040.305806
$GPGGA,162358,4738.8759,N,12218.6754,W,2,05,02,+0004,M,-018,M,00,0000*79,1679675040.580021
$GPVTG,131.3,T,,,006.4,N,011.9,K*26,1679675040.646682
$WIMWV,048,R,010,N,A*2E,1679675040.696663
$SDDBT,00030.1,f,0009.2,M,0005.0,F*0A,1679675041.312139
$GPHDT,130.9,T*3E,1679675041.362174
$SDDBS,00033.4,f,0010.2,M,0005.5,F*06,1679675041.362174
$GPGGA,162359,4738.8749,N,12218.6734,W,2,05,02,+0004,M,-018,M,00,0000*7F,1679675041.595316
$SDDPT,0009.2,001.0*6D,1679675041.595316
$GPVTG,131.1,T,,,006.4,N,011.9,K*24,1679675041.711809
$PFEC,SDvrm,0000.0*70,1679675041.711809
$WIMWV,048,R,011,N,A*2F,1679675041.811628
$YCMTW,094.82,C*0E,1679675041.811628
$VWVHW,,T,,M,06.0,N,11.2,K*50,1679675041.811628
$GPHDT,130.1,T*36,1679675042.316152
$GPGGA,162400,4738.8737,N,12218.6714,W,2,05,02,+0004,M,-018,M,00,0000*7F,1679675042.589523
$GPVTG,131.0,T,,,006.4,N,011.9,K*25,1679675042.662565
$WIMWV,055,R,011,N,A*23,1679675042.770508
$SDDBT,00030.5,f,0009.3,M,0005.0,F*0F,1679675043.312431
$GPHDT,129.1,T*3E,1679675043.362359
$SDDBS,00033.7,f,0010.3,M,0005.6,F*07,1679675043.362359
$GPGGA,162401,4738.8725,N,12218.6694,W,2,05,02,+0004,M,-018,M,00,0000*74,1679675043.595137
$SDDPT,0009.3,001.0*6C,1679675043.595137
$GPVTG,131.0,T,,,006.4,N,011.9,K*25,1679675043.711675
$PFEC,SDvrm,0000.0*70,1679675043.711675
$WIMWV,059,R,011,N,A*2F,1679675043.811585
$YCMTW,094.82,C*0E,1679675043.811585
$VWVHW,,T,,M,06.0,N,11.2,K*50,1679675043.811585
$GPHDT,128.1,T*3F,1679675044.305993
$GPGGA,162402,4738.8713,N,12218.6675,W,2,05,02,+0004,M,-018,M,00,0000*7D,1679675044.580417
$GPVTG,130.8,T,,,006.5,N,012.0,K*27,1679675044.653063
$WIMWV,050,R,010,N,A*27,1679675044.866217
$SDDBT,00029.8,f,0009.1,M,0004.9,F*00,1679675045.311729
$GPHDT,127.1,T*30,1679675045.36174
$SDDBS,00033.1,f,0010.1,M,0005.5,F*00,1679675045.36174
$GPGGA,162403,4738.8702,N,12218.6655,W,2,05,02,+0004,M,-018,M,00,0000*7E,1679675045.594669
$SDDPT,0009.1,001.0*6E,1679675045.594669
$GPVTG,130.4,T,,,006.5,N,012.0,K*2B,1679675045.711288
$PFEC,SDvrm,0000.0*70,1679675045.711288
$YCMTW,094.82,C*0E,1679675045.711288
$VWVHW,,T,,M,05.6,N,10.4,K*52,1679675045.711288
$WIMWV,046,R,010,N,A*20,1679675045.925856
$GPHDT,126.2,T*32,1679675046.306293
$GPGGA,162404,4738.8691,N,12218.6636,W,2,05,02,+0004,M,-018,M,00,0000*77,1679675046.579994
$GPVTG,130.0,T,,,006.5,N,012.0,K*2F,1679675046.652594
$WIMWV,044,R,010,N,A*22,1679675046.963783
$SDDBT,00029.8,f,0009.1,M,0004.9,F*00,1679675047.312572
$GPHDT,125.3,T*30,1679675047.362485
$SDDBS,00033.1,f,0010.1,M,0005.5,F*00,1679675047.362485
$GPGGA,162405,4738.8679,N,12218.6616,W,2,05,02,+0004,M,-018,M,00,0000*72,1679675047.595751
$SDDPT,0009.1,001.0*6E,1679675047.595751
$GPVTG,129.3,T,,,006.5,N,012.0,K*24,1679675047.712089
$PFEC,SDvrm,0000.0*70,1679675047.712089
$YCMTW,094.82,C*0E,1679675047.712089
$VWVHW,,T,,M,05.6,N,10.4,K*52,1679675047.712089
$WIMWV,057,R,009,N,A*28,1679675048.010514
$GPHDT,124.4,T*36,1679675048.306582
$GPGGA,162406,4738.8668,N,12218.6598,W,2,05,02,+0004,M,-018,M,00,0000*74,1679675048.579996
$GPVTG,128.5,T,,,006.5,N,012.0,K*23,1679675048.652696
$WIMWV,073,R,009,N,A*2E,1679675049.058654
$SDDBT,00030.8,f,0009.4,M,0005.1,F*04,1679675049.312774
$GPHDT,123.5,T*30,1679675049.362669
$SDDBS,00034.1,f,0010.4,M,0005.6,F*01,1679675049.362669
$GPGGA,162407,4738.8657,N,12218.6579,W,2,05,02,+0004,M,-018,M,00,0000*76,1679675049.595601
$SDDPT,0009.4,001.0*6B,1679675049.595601
$GPVTG,127.9,T,,,006.5,N,012.0,K*20,1679675049.711976
$PFEC,SDvrm,0000.0*70,1679675049.711976
$YCMTW,094.82,C*0E,1679675049.711976
$VWVHW,,T,,M,05.8,N,10.8,K*50,1679675049.711976
$WIMWV,066,R,010,N,A*22,1679675050.108317
$GPHDT,122.7,T*33,1679675050.306602
$GPGGA,162408,4738.8647,N,12218.6561,W,2,05,02,+0004,M,-018,M,00,0000*71,1679675050.580146
$GPVTG,127.3,T,,,006.5,N,012.0,K*2A,1679675050.652757
$WIMWV,089,R,010,N,A*23,1679675051.156533
$SDDBT,00031.4,f,0009.6,M,0005.2,F*08,1679675051.312937
$GPHDT,121.8,T*3F,1679675051.362898
$SDDBS,00034.7,f,0010.6,M,0005.7,F*04,1679675051.362898
$GPGGA,162409,4738.8636,N,12218.6523,W,2,05,02,+0004,M,-018,M,00,0000*70,1679675051.595668
$SDDPT,0009.6,001.0*69,1679675051.595668
$GPVTG,126.4,T,,,006.5,N,012.0,K*2C,1679675051.712254
$PFEC,SDvrm,0000.0*70,1679675051.712254
$YCMTW,094.82,C*0E,1679675051.712254
$VWVHW,,T,,M,05.6,N,10.4,K*52,1679675051.712254
$WIMWV,070,R,008,N,A*2C,1679675052.20359
$GPHDT,120.9,T*3F,1679675052.306809
$GPGGA,162410,4738.8626,N,12218.6505,W,2,05,02,+0004,M,-018,M,00,0000*7D,1679675052.580294
$GPVTG,125.7,T,,,006.5,N,012.0,K*2C,1679675052.652874
$WIMWV,065,R,009,N,A*29,1679675053.259573
$SDDBT,00031.4,f,0009.6,M,0005.2,F*08,1679675053.326426
$GPHDT,119.9,T*35,1679675053.376312
$SDDBS,00034.7,f,0010.6,M,0005.7,F*04,1679675053.376312
$GPGGA,162411,4738.8617,N,12218.6487,W,2,05,02,+0004,M,-018,M,00,0000*75,1679675053.609272
$SDDPT,0009.6,001.0*69,1679675053.609272
$GPVTG,124.9,T,,,006.5,N,012.0,K*23,1679675053.742278
$PFEC,SDvrm,0000.0*70,1679675053.742278
$YCMTW,094.82,C*0E,1679675053.742278
$VWVHW,,T,,M,05.6,N,10.4,K*52,1679675053.742278
$WIMWV,061,R,009,N,A*2D,1679675054.308029
$GPHDT,119.0,T*3C,1679675054.341335
$GPGGA,162412,4738.8607,N,12218.6470,W,2,05,02,+0004,M,-018,M,00,0000*7F,1679675054.581023
$GPVTG,124.1,T,,,006.5,N,012.0,K*2B,1679675054.653874
$SDDBT,00031.4,f,0009.6,M,0005.2,F*08,1679675055.313425
$WIMWV,068,R,009,N,A*24,1679675055.363283
$GPHDT,118.0,T*3D,1679675055.41314
$SDDBS,00034.7,f,0010.6,M,0005.7,F*04,1679675055.41314
$GPGGA,162413,4738.8597,N,12218.6433,W,2,05,02,+0004,M,-018,M,00,0000*73,1679675055.646055
$SDDPT,0009.6,001.0*69,1679675055.646055
$GPVTG,123.2,T,,,006.5,N,012.0,K*2F,1679675055.779194
$PFEC,SDvrm,0000.0*70,1679675055.779194
$YCMTW,094.82,C*0E,1679675055.779194
$VWVHW,,T,,M,05.6,N,10.4,K*52,1679675055.779194
$GPHDT,117.1,T*33,1679675056.307225
$WIMWV,033,R,008,N,A*2B,1679675056.399035
$GPGGA,162414,4738.8588,N,12218.6416,W,2,05,02,+0004,M,-018,M,00,0000*7D,1679675056.58077
$GPVTG,122.4,T,,,006.5,N,012.0,K*28,1679675056.653344
$SDDBT,00031.4,f,0009.6,M,0005.2,F*08,1679675057.313291
$GPHDT,116.2,T*31,1679675057.363215
$SDDBS,00034.7,f,0010.6,M,0005.7,F*04,1679675057.363215
$WIMWV,039,R,008,N,A*21,1679675057.496398
$GPGGA,162415,4738.8579,N,12218.6399,W,2,05,02,+0004,M,-018,M,00,0000*72,1679675057.645856
$SDDPT,0009.6,001.0*69,1679675057.645856
$GPVTG,121.5,T,,,006.5,N,012.0,K*2A,1679675057.779162
$PFEC,SDvrm,0000.0*70,1679675057.779162
$YCMTW,094.82,C*0E,1679675057.779162
$VWVHW,,T,,M,05.4,N,10.0,K*54,1679675057.779162
$GPHDT,115.3,T*33,1679675058.307159
$GPGGA,162416,4738.8570,N,12218.6362,W,2,05,02,+0004,M,-018,M,00,0000*7C,1679675058.581502
$WIMWV,048,R,009,N,A*26,1679675058.631026
$GPVTG,120.7,T,,,006.5,N,012.0,K*29,1679675058.697855
$SDDBT,00031.4,f,0009.6,M,0005.2,F*08,1679675059.313319
$GPHDT,114.4,T*35,1679675059.363201
$SDDBS,00034.7,f,0010.6,M,0005.7,F*04,1679675059.363201
$GPGGA,162417,4738.8561,N,12218.6346,W,2,05,02,+0004,M,-018,M,00,0000*7B,1679675059.596258
$SDDPT,0009.6,001.0*69,1679675059.596258
$WIMWV,044,R,009,N,A*2A,1679675059.695884
$GPVTG,119.8,T,,,006.5,N,012.0,K*2C,1679675059.779197
$PFEC,SDvrm,0000.0*70,1679675059.779197
$YCMTW,094.82,C*0E,1679675059.779197
$VWVHW,,T,,M,05.6,N,10.4,K*52,1679675059.779197
$GPHDT,113.7,T*31,1679675060.306879
$GPGGA,162418,4738.8553,N,12218.6329,W,2,05,02,+0004,M,-018,M,00,0000*7C,1679675060.580616
$WIMWV,050,R,009,N,A*2F,1679675060.630357
$GPVTG,119.0,T,,,006.5,N,012.0,K*24,1679675060.697175
$SDDBT,00031.4,f,0009.6,M,0005.2,F*08,1679675061.313541
$GPHDT,113.1,T*37,1679675061.3636
$SDDBS,00034.7,f,0010.6,M,0005.7,F*04,1679675061.3636
$GPGGA,162419,4738.8546,N,12218.6293,W,2,05,01,+0004,M,-018,M,00,0000*7A,1679675061.596508
$SDDPT,0009.6,001.0*69,1679675061.596508
$WIMWV,054,R,009,N,A*2B,1679675061.696131
$GPVTG,118.0,T,,,006.5,N,012.0,K*25,1679675061.779534
$PFEC,SDvrm,0000.0*70,1679675061.779534
$YCMTW,094.82,C*0E,1679675061.779534
$VWVHW,,T,,M,05.6,N,10.4,K*52,1679675061.779534
$GPHDT,112.6,T*31,1679675062.307123
$GPGGA,162420,4738.8539,N,12218.6277,W,2,06,01,+0004,M,-018,M,00,0000*71,1679675062.581634
$GPVTG,117.1,T,,,006.5,N,012.0,K*2B,1679675062.648072
$WIMWV,041,R,010,N,A*27,1679675062.698089
$SDDBT,00031.8,f,0009.7,M,0005.3,F*04,1679675063.313855
$GPHDT,112.1,T*36,1679675063.363622
$SDDBS,00035.1,f,0010.7,M,0005.8,F*0D,1679675063.363622
$GPGGA,162421,4738.8531,N,12218.6261,W,2,06,01,+0004,M,-018,M,00,0000*7F,1679675063.596894
$SDDPT,0009.7,001.0*68,1679675063.596894
$GPVTG,116.3,T,,,006.5,N,012.0,K*28,1679675063.713399
$PFEC,SDvrm,0000.0*70,1679675063.713399
$WIMWV,045,R,010,N,A*23,1679675063.813231
$YCMTW,094.82,C*0E,1679675063.813231
$VWVHW,,T,,M,05.6,N,10.4,K*52,1679675063.813231
$GPHDT,111.6,T*32,1679675064.317527
$GPGGA,162422,4738.8524,N,12218.6225,W,2,06,01,+0004,M,-018,M,00,0000*78,1679675064.59114
$GPVTG,115.3,T,,,006.5,N,012.0,K*2B,1679675064.663772
$WIMWV,057,R,012,N,A*22,1679675064.78489
$SDDBT,00031.8,f,0009.7,M,0005.3,F*04,1679675065.313646
$GPHDT,111.0,T*34,1679675065.363643
$SDDBS,00035.1,f,0010.7,M,0005.8,F*0D,1679675065.363643
$GPGGA,162423,4738.8518,N,12218.6210,W,2,06,01,+0004,M,-018,M,00,0000*70,1679675065.596602
$SDDPT,0009.7,001.0*68,1679675065.596602
$GPVTG,114.5,T,,,006.5,N,012.0,K*2C,1679675065.712889
$PFEC,SDvrm,0000.0*70,1679675065.712889
$YCMTW,094.82,C*0E,1679675065.712889
$WIMWV,059,R,013,N,A*2D,1679675065.86283
$VWVHW,,T,,M,05.6,N,10.4,K*52,1679675065.86283
$GPHDT,110.4,T*31,1679675066.307917
$GPGGA,162424,4738.8511,N,12218.6175,W,2,06,01,+0004,M,-018,M,00,0000*7E,1679675066.581656
$GPVTG,113.9,T,,,006.5,N,012.1,K*26,1679675066.65436
$WIMWV,065,R,013,N,A*22,1679675066.881394
$SDDBT,00031.4,f,0009.6,M,0005.2,F*08,1679675067.314157
$GPHDT,109.8,T*35,1679675067.364043
$SDDBS,00034.7,f,0010.6,M,0005.7,F*04,1679675067.364043
$GPGGA,162425,4738.8504,N,12218.6160,W,2,06,01,+0004,M,-018,M,00,0000*7F,1679675067.597139
$SDDPT,0009.6,001.0*69,1679675067.597139
$GPVTG,113.1,T,,,006.5,N,012.1,K*2E,1679675067.713689
$PFEC,SDvrm,0000.0*70,1679675067.713689
$YCMTW,094.82,C*0E,1679675067.713689
$VWVHW,,T,,M,05.8,N,10.8,K*50,1679675067.713689
$WIMWV,072,R,013,N,A*24,1679675067.929851
$GPHDT,109.0,T*3D,1679675068.307588
$GPGGA,162426,4738.8497,N,12218.6125,W,2,06,01,+0004,M,-018,M,00,0000*76,1679675068.580899
$GPVTG,112.3,T,,,006.5,N,012.1,K*2D,1679675068.653773
$WIMWV,054,R,012,N,A*21,1679675068.977873
$SDDBT,00031.4,f,0009.6,M,0005.2,F*08,1679675069.314129
$GPHDT,108.3,T*3F,1679675069.364012
$SDDBS,00034.7,f,0010.6,M,0005.7,F*04,1679675069.364012
$GPGGA,162427,4738.8491,N,12218.6110,W,2,06,01,+0004,M,-018,M,00,0000*77,1679675069.596915
$SDDPT,0009.6,001.0*69,1679675069.596915
$GPVTG,111.6,T,,,006.5,N,012.1,K*2B,1679675069.713316
$PFEC,SDvrm,0000.0*70,1679675069.713316
$YCMTW,094.82,C*0E,1679675069.713316
$VWVHW,,T,,M,05.8,N,10.8,K*50,1679675069.713316
$WIMWV,066,R,013,N,A*21,1679675070.026656
$GPHDT,107.8,T*3B,1679675070.307667
$GPGGA,162428,4738.8485,N,12218.6075,W,2,06,01,+0004,M,-018,M,00,0000*7F,1679675070.582179
$GPVTG,110.9,T,,,006.5,N,012.1,K*25,1679675070.654751
$WIMWV,068,R,012,N,A*2E,1679675071.073733
$SDDBT,00031.1,f,0009.5,M,0005.1,F*0D,1679675071.314093
$GPHDT,107.2,T*31,1679675071.363818
$SDDBS,00034.4,f,0010.5,M,0005.7,F*04,1679675071.363818
$GPGGA,162429,4738.8478,N,12218.6060,W,2,06,01,+0004,M,-018,M,00,0000*78,1679675071.59707
$SDDPT,0009.5,001.0*6A,1679675071.59707
$GPVTG,110.2,T,,,006.5,N,012.1,K*2E,1679675071.713652
$PFEC,SDvrm,0000.0*70,1679675071.713652
$YCMTW,094.82,C*0E,1679675071.713652
$VWVHW,,T,,M,05.8,N,10.8,K*50,1679675071.713652
$WIMWV,072,R,013,N,A*24,1679675072.122682
$GPHDT,106.7,T*35,1679675072.307885
$GPGGA,162430,4738.8473,N,12218.6026,W,2,06,01,+0004,M,-018,M,00,0000*79,1679675072.581393
$GPVTG,109.5,T,,,006.5,N,012.1,K*21,1679675072.654042
$WIMWV,068,R,013,N,A*2F,1679675073.171448
$SDDBT,00031.1,f,0009.5,M,0005.1,F*0D,1679675073.313776
$GPHDT,106.3,T*31,1679675073.363509
$SDDBS,00034.4,f,0010.5,M,0005.7,F*04,1679675073.363509
$GPGGA,162431,4738.8467,N,12218.6011,W,2,06,01,+0004,M,-018,M,00,0000*79,1679675073.596637
$SDDPT,0009.5,001.0*6A,1679675073.596637
$GPVTG,108.7,T,,,006.5,N,012.1,K*22,1679675073.713082
$PFEC,SDvrm,0000.0*70,1679675073.713082
$YCMTW,094.82,C*0E,1679675073.713082
$VWVHW,,T,,M,05.8,N,10.8,K*50,1679675073.713082
$WIMWV,069,R,012,N,A*2F,1679675074.220034
$GPHDT,106.0,T*32,1679675074.308542
$GPGGA,162432,4738.8462,N,12218.5977,W,2,06,01,+0004,M,-018,M,00,0000*75,1679675074.58214
$GPVTG,108.1,T,,,006.5,N,012.1,K*24,1679675074.654859
$WIMWV,059,R,012,N,A*2C,1679675075.272796
$SDDBT,00031.4,f,0009.6,M,0005.2,F*08,1679675075.339404
$GPHDT,105.7,T*36,1679675075.389483
$SDDBS,00034.7,f,0010.6,M,0005.7,F*04,1679675075.389483
$GPGGA,162433,4738.8457,N,12218.5942,W,2,06,02,+0004,M,-018,M,00,0000*77,1679675075.622395
$SDDPT,0009.6,001.0*69,1679675075.622395
$GPVTG,107.6,T,,,006.5,N,012.1,K*2C,1679675075.755414
$PFEC,SDvrm,0000.0*70,1679675075.755414
$YCMTW,094.82,C*0E,1679675075.755414
$VWVHW,,T,,M,06.0,N,11.2,K*50,1679675075.755414
$WIMWV,072,R,012,N,A*25,1679675076.322216
$GPHDT,105.3,T*32,1679675076.355499
$GPGGA,162434,4738.8451,N,12218.5928,W,2,05,02,+0004,M,-018,M,00,0000*79,1679675076.582026
$GPVTG,107.0,T,,,006.5,N,012.0,K*2B,1679675076.654932
$SDDBT,00031.4,f,0009.6,M,0005.2,F*08,1679675077.314735
$WIMWV,076,R,011,N,A*22,1679675077.364406
$GPHDT,104.9,T*39,1679675077.414393
$SDDBS,00034.7,f,0010.6,M,0005.7,F*04,1679675077.414393
$GPGGA,162435,4738.8447,N,12218.5894,W,2,05,02,+0004,M,-018,M,00,0000*79,1679675077.647438
$SDDPT,0009.6,001.0*69,1679675077.647438
$GPVTG,106.5,T,,,006.5,N,012.0,K*2F,1679675077.780458
$PFEC,SDvrm,0000.0*70,1679675077.780458
$YCMTW,094.82,C*0E,1679675077.780458
$VWVHW,,T,,M,05.8,N,10.8,K*50,1679675077.780458
$GPHDT,104.5,T*35,1679675078.308816
$WIMWV,061,R,011,N,A*24,1679675078.412983
$GPGGA,162436,4738.8442,N,12218.5879,W,2,05,02,+0004,M,-018,M,00,0000*7C,1679675078.582528
$GPVTG,106.1,T,,,006.5,N,012.0,K*2B,1679675078.655479
$SDDBT,00031.8,f,0009.7,M,0005.3,F*04,1679675079.31472
$GPHDT,104.2,T*32,1679675079.364641
$SDDBS,00035.1,f,0010.7,M,0005.8,F*0D,1679675079.364641
$WIMWV,064,R,011,N,A*21,1679675079.497839
$GPGGA,162437,4738.8437,N,12218.5845,W,2,05,02,+0004,M,-018,M,00,0000*70,1679675079.647625
$SDDPT,0009.7,001.0*68,1679675079.647625
$GPVTG,105.8,T,,,006.5,N,012.0,K*21,1679675079.780956
$PFEC,SDvrm,0000.0*70,1679675079.780956
$YCMTW,094.52,C*03,1679675079.780956
$VWVHW,,T,,M,05.8,N,10.8,K*50,1679675079.780956
$GPHDT,103.9,T*3E,1679675080.308647
$GPGGA,162438,4738.8433,N,12218.5830,W,2,05,02,+0004,M,-018,M,00,0000*79,1679675080.582616
$WIMWV,082,R,010,N,A*28,1679675080.632121
$GPVTG,105.3,T,,,006.5,N,012.0,K*2A,1679675080.699003
$SDDBT,00031.4,f,0009.6,M,0005.2,F*08,1679675081.315101
$GPHDT,103.8,T*3F,1679675081.365056
$SDDBS,00034.7,f,0010.6,M,0005.7,F*04,1679675081.365056
$GPGGA,162439,4738.8428,N,12218.5796,W,2,05,02,+0004,M,-018,M,00,0000*71,1679675081.598038
$SDDPT,0009.6,001.0*69,1679675081.598038
$WIMWV,050,R,010,N,A*27,1679675081.697982
$GPVTG,104.9,T,,,006.5,N,012.0,K*21,1679675081.781157
$PFEC,SDvrm,0000.0*70,1679675081.781157
$YCMTW,094.80,C*0C,1679675081.781157
$VWVHW,,T,,M,05.6,N,10.4,K*52,1679675081.781157
$GPHDT,103.7,T*30,1679675082.309243
$GPGGA,162440,4738.8424,N,12218.5762,W,2,05,02,+0004,M,-018,M,00,0000*78,1679675082.582858
$WIMWV,090,R,009,N,A*23,1679675082.632421
$GPVTG,104.6,T,,,006.5,N,012.0,K*2E,1679675082.699431
$SDDBT,00031.4,f,0009.6,M,0005.2,F*08,1679675083.315444
$GPHDT,103.6,T*31,1679675083.365261
$SDDBS,00034.7,f,0010.6,M,0005.7,F*04,1679675083.365261
$GPGGA,162441,4738.8419,N,12218.5747,W,2,05,02,+0004,M,-018,M,00,0000*70,1679675083.598125
$SDDPT,0009.6,001.0*69,1679675083.598125
$WIMWV,064,R,008,N,A*29,1679675083.698133
$GPVTG,104.3,T,,,006.5,N,012.0,K*2B,1679675083.781309
$PFEC,SDvrm,0000.0*70,1679675083.781309
$YCMTW,094.80,C*0C,1679675083.781309
$VWVHW,,T,,M,06.0,N,11.2,K*50,1679675083.781309
$GPHDT,103.5,T*32,1679675084.308532
$GPGGA,162442,4738.8415,N,12218.5713,W,2,05,02,+0004,M,-018,M,00,0000*7E,1679675084.582928
$GPVTG,104.0,T,,,006.5,N,012.0,K*28,1679675084.649304
$WIMWV,079,R,008,N,A*25,1679675084.699426
$SDDBT,00031.4,f,0009.6,M,0005.2,F*08,1679675085.315356
$GPHDT,103.4,T*33,1679675085.365116
$SDDBS,00034.7,f,0010.6,M,0005.7,F*04,1679675085.365116
$GPGGA,162443,4738.8411,N,12218.5699,W,2,05,02,+0004,M,-018,M,00,0000*78,1679675085.598135
$SDDPT,0009.6,001.0*69,1679675085.598135
$GPVTG,103.7,T,,,006.5,N,012.0,K*28,1679675085.714565
$PFEC,SDvrm,0000.0*70,1679675085.714565
$WIMWV,067,R,008,N,A*2A,1679675085.814399
$YCMTW,094.80,C*0C,1679675085.814399
$VWVHW,,T,,M,06.0,N,11.2,K*50,1679675085.814399
$GPHDT,103.3,T*34,1679675086.318865
$GPGGA,162444,4738.8406,N,12218.5665,W,2,05,02,+0004,M,-018,M,00,0000*7A,1679675086.592571
$GPVTG,103.6,T,,,006.5,N,012.0,K*29,1679675086.665393
$WIMWV,094,R,009,N,A*27,1679675086.80012
$SDDBT,00031.8,f,0009.7,M,0005.3,F*04,1679675087.315738
$GPHDT,103.2,T*35,1679675087.365477
$SDDBS,00035.1,f,0010.7,M,0005.8,F*0D,1679675087.365477
$GPGGA,162445,4738.8402,N,12218.5651,W,2,05,02,+0004,M,-018,M,00,0000*78,1679675087.598492
$SDDPT,0009.7,001.0*68,1679675087.598492
$GPVTG,103.4,T,,,006.5,N,012.0,K*2B,1679675087.715206
$PFEC,SDvrm,0000.0*70,1679675087.715206
$YCMTW,094.80,C*0C,1679675087.715206
$WIMWV,059,R,008,N,A*27,1679675087.865298
$VWVHW,,T,,M,06.0,N,11.2,K*50,1679675087.865298
$GPHDT,103.1,T*36,1679675088.309524
$GPGGA,162446,4738.8398,N,12218.5617,W,2,05,02,+0004,M,-018,M,00,0000*7D,1679675088.583185
$GPVTG,103.2,T,,,006.5,N,012.0,K*2D,1679675088.655952
$WIMWV,065,R,008,N,A*28,1679675088.895234
$SDDBT,00031.4,f,0009.6,M,0005.2,F*08,1679675089.315912
$GPHDT,102.9,T*3F,1679675089.365813
$SDDBS,00034.7,f,0010.6,M,0005.7,F*04,1679675089.365813
$GPGGA,162447,4738.8395,N,12218.5583,W,2,05,02,+0004,M,-018,M,00,0000*7F,1679675089.598632
$SDDPT,0009.6,001.0*69,1679675089.598632
$GPVTG,103.1,T,,,006.5,N,012.0,K*2E,1679675089.715438
$PFEC,SDvrm,0000.0*70,1679675089.715438
$YCMTW,094.80,C*0C,1679675089.715438
$VWVHW,,T,,M,06.0,N,11.2,K*50,1679675089.715438
$WIMWV,066,R,008,N,A*2B,1679675089.943033
$GPHDT,102.8,T*3E,1679675090.308702
$GPGGA,162448,4738.8392,N,12218.5568,W,2,05,02,+0004,M,-018,M,00,0000*72,1679675090.583404
$GPVTG,102.9,T,,,006.5,N,012.0,K*27,1679675090.656058
$WIMWV,076,R,008,N,A*2A,1679675090.992884
$SDDBT,00031.1,f,0009.5,M,0005.1,F*0D,1679675091.315859
$GPHDT,102.8,T*3E,1679675091.365721
$SDDBS,00034.4,f,0010.5,M,0005.7,F*04,1679675091.365721
$GPGGA,162449,4738.8388,N,12218.5534,W,2,05,02,+0004,M,-018,M,00,0000*71,1679675091.598728
$SDDPT,0009.5,001.0*6A,1679675091.598728
$GPVTG,102.8,T,,,006.5,N,012.0,K*26,1679675091.715362
$PFEC,SDvrm,0000.0*70,1679675091.715362
$YCMTW,094.80,C*0C,1679675091.715362
$VWVHW,,T,,M,06.0,N,11.2,K*50,1679675091.715362
$WIMWV,057,R,008,N,A*29,1679675092.041404
$GPHDT,102.7,T*31,1679675092.309679
$GPGGA,162450,4738.8384,N,12218.5519,W,2,05,02,+0004,M,-018,M,00,0000*7A,1679675092.58309
$GPVTG,102.8,T,,,006.5,N,012.0,K*26,1679675092.655778
$WIMWV,058,R,007,N,A*29,1679675093.088614
$SDDBT,00030.1,f,0009.2,M,0005.0,F*0A,1679675093.316116
$GPHDT,102.6,T*30,1679675093.365858
$SDDBS,00033.4,f,0010.2,M,0005.5,F*06,1679675093.365858
$GPGGA,162451,4738.8380,N,12218.5485,W,2,05,02,+0004,M,-018,M,00,0000*7B,1679675093.598958
$SDDPT,0009.2,001.0*6D,1679675093.598958
$GPVTG,102.6,T,,,006.5,N,012.0,K*28,1679675093.715456
$PFEC,SDvrm,0000.0*70,1679675093.715456
$YCMTW,094.80,C*0C,1679675093.715456
$VWVHW,,T,,M,05.8,N,10.8,K*50,1679675093.715456
$WIMWV,046,R,007,N,A*26,1679675094.136898
$GPHDT,102.4,T*32,1679675094.30997
$GPGGA,162452,4738.8376,N,12218.5471,W,2,05,02,+0004,M,-018,M,00,0000*7A,1679675094.583409
$GPVTG,102.6,T,,,006.4,N,011.9,K*23,1679675094.656053
$WIMWV,047,R,006,N,A*26,1679675095.184668
$SDDBT,00030.5,f,0009.3,M,0005.0,F*0F,1679675095.31554
$GPHDT,102.1,T*37,1679675095.365497
$SDDBS,00033.7,f,0010.3,M,0005.6,F*07,1679675095.365497
$GPGGA,162453,4738.8370,N,12218.5437,W,2,05,02,+0004,M,-018,M,00,0000*7F,1679675095.598296
$SDDPT,0009.3,001.0*6C,1679675095.598296
$GPVTG,102.7,T,,,006.4,N,011.9,K*22,1679675095.714905
$PFEC,SDvrm,0000.0*70,1679675095.714905
$YCMTW,094.80,C*0C,1679675095.714905
$VWVHW,,T,,M,05.6,N,10.4,K*52,1679675095.714905
$WIMWV,047,R,006,N,A*26,1679675096.234716
$GPHDT,101.2,T*37,1679675096.309294
$GPGGA,162454,4738.8366,N,12218.5403,W,2,05,02,+0004,M,-018,M,00,0000*78,1679675096.583804
$GPVTG,102.7,T,,,006.4,N,011.9,K*22,1679675096.656528
$WIMWV,043,R,005,N,A*21,1679675097.289682
$GPHDT,099.6,T*33,1679675097.322815
$SDDBT,00030.1,f,0009.2,M,0005.0,F*0A,1679675097.406034
$SDDBS,00033.4,f,0010.2,M,0005.5,F*06,1679675097.406034
$GPGGA,162455,4738.8363,N,12218.5389,W,2,05,02,+0004,M,-018,M,00,0000*79,1679675097.638949
$SDDPT,0009.2,001.0*6D,1679675097.638949
$GPVTG,102.5,T,,,006.4,N,011.9,K*20,1679675097.772161
$PFEC,SDvrm,0000.0*70,1679675097.772161
$YCMTW,094.80,C*0C,1679675097.772161
$VWVHW,,T,,M,05.6,N,10.4,K*52,1679675097.772161
$GPHDT,097.7,T*3C,1679675098.311688
$WIMWV,053,R,005,N,A*20,1679675098.361669
$GPGGA,162456,4738.8359,N,12218.5355,W,2,05,02,+0004,M,-018,M,00,0000*72,1679675098.582852
$GPVTG,102.4,T,,,006.4,N,011.9,K*21,1679675098.655717
$SDDBT,00030.5,f,0009.3,M,0005.0,F*0F,1679675099.316423
$GPHDT,095.6,T*3F,1679675099.366321
$SDDBS,00033.7,f,0010.3,M,0005.6,F*07,1679675099.366321
$WIMWV,053,R,005,N,A*20,1679675099.499334
$GPGGA,162457,4738.8355,N,12218.5340,W,2,05,02,+0004,M,-018,M,00,0000*7B,1679675099.649241
$SDDPT,0009.3,001.0*6C,1679675099.649241
$GPVTG,102.2,T,,,006.4,N,011.9,K*27,1679675099.782451
$PFEC,SDvrm,0000.0*70,1679675099.782451
$YCMTW,094.80,C*0C,1679675099.782451
$VWVHW,,T,,M,05.4,N,10.0,K*54,1679675099.782451
$GPHDT,093.7,T*38,1679675100.309624
$WIMWV,050,R,005,N,A*23,1679675100.433921
$GPGGA,162458,4738.8352,N,12218.5305,W,2,05,02,+0004,M,-018,M,00,0000*72,1679675100.584114
$GPVTG,101.9,T,,,006.4,N,011.8,K*2E,1679675100.650581
$SDDBT,00030.5,f,0009.3,M,0005.0,F*0F,1679675101.316388
$GPHDT,092.1,T*3F,1679675101.366468
$SDDBS,00033.7,f,0010.3,M,0005.6,F*07,1679675101.366468
$WIMWV,058,R,005,N,A*2B,1679675101.499636
$GPGGA,162459,4738.8350,N,12218.5272,W,2,05,02,+0004,M,-018,M,00,0000*70,1679675101.649545
$SDDPT,0009.3,001.0*6C,1679675101.649545
$GPVTG,101.1,T,,,006.4,N,011.8,K*26,1679675101.782547
$PFEC,SDvrm,0000.0*70,1679675101.782547
$YCMTW,094.80,C*0C,1679675101.782547
$VWVHW,,T,,M,05.4,N,10.0,K*54,1679675101.782547
$GPHDT,090.9,T*35,1679675102.31028
$GPGGA,162500,4738.8348,N,12218.5256,W,2,05,02,+0004,M,-018,M,00,0000*72,1679675102.584135
$WIMWV,061,R,006,N,A*22,1679675102.633687
$GPVTG,099.7,T,,,006.3,N,011.7,K*28,1679675102.700471
$SDDBT,00030.1,f,0009.2,M,0005.0,F*0A,1679675103.316979
$GPHDT,090.0,T*3C,1679675103.366959
$SDDBS,00033.4,f,0010.2,M,0005.5,F*06,1679675103.366959
$GPGGA,162501,4738.8347,N,12218.5222,W,2,05,02,+0004,M,-018,M,00,0000*7F,1679675103.599793
$SDDPT,0009.2,001.0*6D,1679675103.599793
$WIMWV,071,R,006,N,A*23,1679675103.699644
$GPVTG,098.3,T,,,006.3,N,011.7,K*2D,1679675103.782867
$PFEC,SDvrm,0000.0*70,1679675103.782867
$YCMTW,094.80,C*0C,1679675103.782867
$VWVHW,,T,,M,05.8,N,10.8,K*50,1679675103.782867
$GPHDT,089.5,T*31,1679675104.310648
$GPGGA,162502,4738.8345,N,12218.5207,W,2,05,02,+0004,M,-018,M,00,0000*79,1679675104.584297
$WIMWV,064,R,006,N,A*27,1679675104.633868
$GPVTG,097.0,T,,,006.3,N,011.6,K*20,1679675104.700784
$SDDBT,00030.1,f,0009.2,M,0005.0,F*0A,1679675105.316928
$GPHDT,089.3,T*37,1679675105.366884
$SDDBS,00033.4,f,0010.2,M,0005.5,F*06,1679675105.366884
$GPGGA,162503,4738.8344,N,12218.5173,W,2,05,02,+0004,M,-018,M,00,0000*79,1679675105.599699
$SDDPT,0009.2,001.0*6D,1679675105.599699
$WIMWV,049,R,006,N,A*28,1679675105.699771
$GPVTG,095.7,T,,,006.3,N,011.6,K*25,1679675105.782912
$PFEC,SDvrm,0000.0*70,1679675105.782912
$YCMTW,094.80,C*0C,1679675105.782912
$VWVHW,,T,,M,05.2,N,09.7,K*5D,1679675105.782912
$GPHDT,089.3,T*37,1679675106.310049
$GPGGA,162504,4738.8344,N,12218.5158,W,2,05,02,+0004,M,-018,M,00,0000*77,1679675106.58442
$GPVTG,094.5,T,,,006.2,N,011.6,K*27,1679675106.656945
$WIMWV,085,R,006,N,A*28,1679675106.718301
$SDDBT,00030.1,f,0009.2,M,0005.0,F*0A,1679675107.317088
$GPHDT,089.5,T*31,1679675107.366993
$SDDBS,00033.4,f,0010.2,M,0005.5,F*06,1679675107.366993
$GPGGA,162505,4738.8342,N,12218.5123,W,2,05,02,+0004,M,-018,M,00,0000*7C,1679675107.599857
$SDDPT,0009.2,001.0*6D,1679675107.599857
$GPVTG,093.3,T,,,006.2,N,011.5,K*25,1679675107.716411
$PFEC,SDvrm,0000.0*70,1679675107.716411
$WIMWV,091,R,004,N,A*2F,1679675107.816249
$YCMTW,094.80,C*0C,1679675107.816249
$VWVHW,,T,,M,05.0,N,09.3,K*5B,1679675107.816249
$GPHDT,089.7,T*33,1679675108.320917
$GPGGA,162506,4738.8342,N,12218.5110,W,2,05,02,+0004,M,-018,M,00,0000*7F,1679675108.594414
$GPVTG,092.6,T,,,006.2,N,011.5,K*21,1679675108.667228
$WIMWV,062,R,003,N,A*24,1679675108.814138
$SDDBT,00030.1,f,0009.2,M,0005.0,F*0A,1679675109.316984
$GPHDT,089.8,T*3C,1679675109.366911
$SDDBS,00033.4,f,0010.2,M,0005.5,F*06,1679675109.366911
$GPGGA,162507,4738.8341,N,12218.5075,W,2,05,02,+0004,M,-018,M,00,0000*7F,1679675109.59971
$SDDPT,0009.2,001.0*6D,1679675109.59971
$GPVTG,091.9,T,,,006.2,N,011.5,K*2D,1679675109.716381
$PFEC,SDvrm,0000.0*70,1679675109.716381
$YCMTW,094.80,C*0C,1679675109.716381
$WIMWV,354,R,003,N,A*22,1679675109.866175
$VWVHW,,T,,M,05.4,N,10.0,K*54,1679675109.866175
$GPHDT,089.9,T*3D,1679675110.310716
$GPGGA,162508,4738.8341,N,12218.5061,W,2,05,02,+0004,M,-018,M,00,0000*75,1679675110.584068
$GPVTG,091.4,T,,,006.2,N,011.5,K*20,1679675110.656904
$WIMWV,012,R,005,N,A*25,1679675110.911708
$SDDBT,00029.8,f,0009.1,M,0004.9,F*00,1679675111.316938
$GPHDT,090.0,T*3C,1679675111.366962
$SDDBS,00033.1,f,0010.1,M,0005.5,F*00,1679675111.366962
$GPGGA,162509,4738.8341,N,12218.5027,W,2,05,02,+0004,M,-018,M,00,0000*76,1679675111.599821
$SDDPT,0009.1,001.0*6E,1679675111.599821
$GPVTG,091.3,T,,,006.2,N,011.6,K*24,1679675111.716415
$PFEC,SDvrm,0000.0*70,1679675111.716415
$YCMTW,094.80,C*0C,1679675111.716415
$VWVHW,,T,,M,05.6,N,10.4,K*52,1679675111.716415
$WIMWV,009,R,005,N,A*2F,1679675111.958064
$GPHDT,090.2,T*3E,1679675112.310931
$GPGGA,162510,4738.8341,N,12218.4993,W,2,05,02,+0004,M,-018,M,00,0000*79,1679675112.584451
$GPVTG,091.1,T,,,006.3,N,011.6,K*27,1679675112.657305
$WIMWV,012,R,005,N,A*25,1679675113.008109
$SDDBT,00029.8,f,0009.1,M,0004.9,F*00,1679675113.317322
$GPHDT,090.3,T*3F,1679675113.367083
$SDDBS,00033.1,f,0010.1,M,0005.5,F*00,1679675113.367083
$GPGGA,162511,4738.8341,N,12218.4979,W,2,05,02,+0004,M,-018,M,00,0000*7C,1679675113.600388
$SDDPT,0009.1,001.0*6E,1679675113.600388
$GPVTG,091.0,T,,,006.3,N,011.6,K*26,1679675113.716924
$PFEC,SDvrm,0000.0*70,1679675113.716924
$YCMTW,094.80,C*0C,1679675113.716924
$VWVHW,,T,,M,05.4,N,10.0,K*54,1679675113.716924
$WIMWV,033,R,005,N,A*26,1679675114.055817
$GPHDT,090.4,T*38,1679675114.311128
$GPGGA,162512,4738.8341,N,12218.4944,W,2,05,02,+0004,M,-018,M,00,0000*71,1679675114.584509
$GPVTG,090.9,T,,,006.3,N,011.7,K*2F,1679675114.657399
$WIMWV,021,R,007,N,A*27,1679675115.104757
$SDDBT,00029.1,f,0008.9,M,0004.8,F*01,1679675115.317382
$GPHDT,090.4,T*38,1679675115.367237
$SDDBS,00032.4,f,0009.9,M,0005.4,F*05,1679675115.367237
$GPGGA,162513,4738.8341,N,12218.4930,W,2,05,02,+0004,M,-018,M,00,0000*73,1679675115.600263
$SDDPT,0008.9,001.0*67,1679675115.600263
$GPVTG,090.9,T,,,006.3,N,011.7,K*2F,1679675115.716782
$PFEC,SDvrm,0000.0*70,1679675115.716782
$YCMTW,094.80,C*0C,1679675115.716782
$VWVHW,,T,,M,05.4,N,10.0,K*54,1679675115.716782
$WIMWV,035,R,006,N,A*23,1679675116.151768
$GPHDT,090.4,T*38,1679675116.311359
$GPGGA,162514,4738.8340,N,12218.4896,W,2,05,02,+0004,M,-018,M,00,0000*78,1679675116.584826
$GPVTG,091.0,T,,,006.3,N,011.7,K*27,1679675116.657573
$WIMWV,033,R,006,N,A*25,1679675117.199924
$SDDBT,00029.1,f,0008.9,M,0004.8,F*01,1679675117.317758
$GPHDT,090.5,T*39,1679675117.367655
$SDDBS,00032.4,f,0009.9,M,0005.4,F*05,1679675117.367655
$GPGGA,162515,4738.8340,N,12218.4862,W,2,05,02,+0004,M,-018,M,00,0000*72,1679675117.600713
$SDDPT,0008.9,001.0*67,1679675117.600713
$GPVTG,090.9,T,,,006.3,N,011.7,K*2F,1679675117.717382
$PFEC,SDvrm,0000.0*70,1679675117.717382
$YCMTW,094.80,C*0C,1679675117.717382
$VWVHW,,T,,M,05.6,N,10.4,K*52,1679675117.717382
$WIMWV,032,R,005,N,A*27,1679675118.248091
$GPHDT,090.6,T*3A,1679675118.311304
$GPGGA,162516,4738.8339,N,12218.4848,W,2,05,02,+0004,M,-018,M,00,0000*77,1679675118.584845
$GPVTG,090.9,T,,,006.3,N,011.7,K*2F,1679675118.657733
$SDDBT,00029.1,f,0008.9,M,0004.8,F*01,1679675119.318117
$WIMWV,019,R,004,N,A*2F,1679675119.36812
$GPHDT,090.6,T*3A,1679675119.417938
$SDDBS,00032.4,f,0009.9,M,0005.4,F*05,1679675119.417938
$GPGGA,162517,4738.8338,N,12218.4814,W,2,05,02,+0004,M,-018,M,00,0000*7E,1679675119.651012
$SDDPT,0008.9,001.0*67,1679675119.651012
$GPVTG,091.0,T,,,006.3,N,011.8,K*28,1679675119.784099
$PFEC,SDvrm,0000.0*70,1679675119.784099
$YCMTW,094.80,C*0C,1679675119.784099
$VWVHW,,T,,M,05.8,N,10.8,K*50,1679675119.784099
$GPHDT,090.7,T*3B,1679675120.313254
$WIMWV,020,R,004,N,A*25,1679675120.363198
$GPGGA,162518,4738.8337,N,12218.4801,W,2,05,02,+0004,M,-018,M,00,0000*7A,1679675120.584619
$GPVTG,091.1,T,,,006.4,N,011.8,K*2E,1679675120.657186
$SDDBT,00029.5,f,0009.0,M,0004.9,F*0C,1679675121.317902
$GPHDT,090.9,T*35,1679675121.367963
$SDDBS,00032.8,f,0010.0,M,0005.4,F*08,1679675121.367963
$WIMWV,026,R,005,N,A*22,1679675121.501117
$GPGGA,162519,4738.8338,N,12218.4767,W,2,05,02,+0004,M,-018,M,00,0000*7B,1679675121.650929
$SDDPT,0009.0,001.0*6F,1679675121.650929
$GPVTG,091.1,T,,,006.4,N,011.8,K*2E,1679675121.784044
$PFEC,SDvrm,0000.0*70,1679675121.784044
$YCMTW,094.80,C*0C,1679675121.784044
$VWVHW,,T,,M,05.6,N,10.4,K*52,1679675121.784044
$GPHDT,091.0,T*3D,1679675122.311931
$WIMWV,003,R,005,N,A*25,1679675122.447714
$GPGGA,162520,4738.8337,N,12218.4733,W,2,05,02,+0004,M,-018,M,00,0000*7F,1679675122.597572
$GPVTG,091.2,T,,,006.4,N,011.8,K*2D,1679675122.664027
$SDDBT,00029.5,f,0009.0,M,0004.9,F*0C,1679675123.318193
$GPHDT,091.1,T*3C,1679675123.368112
$SDDBS,00032.8,f,0010.0,M,0005.4,F*08,1679675123.368112
$WIMWV,025,R,006,N,A*22,1679675123.501276
$GPGGA,162521,4738.8337,N,12218.4719,W,2,05,02,+0004,M,-018,M,00,0000*76,1679675123.650897
$SDDPT,0009.0,001.0*6F,1679675123.650897
$GPVTG,091.3,T,,,006.4,N,011.8,K*2C,1679675123.784177
$PFEC,SDvrm,0000.0*70,1679675123.784177
$YCMTW,094.80,C*0C,1679675123.784177
$VWVHW,,T,,M,05.8,N,10.8,K*50,1679675123.784177
$GPHDT,091.2,T*3F,1679675124.311736
$GPGGA,162522,4738.8336,N,12218.4685,W,2,05,02,+0004,M,-018,M,00,0000*70,1679675124.585521
$WIMWV,001,R,006,N,A*24,1679675124.635159
$GPVTG,091.4,T,,,006.4,N,011.8,K*2B,1679675124.702098
$SDDBT,00029.5,f,0009.0,M,0004.9,F*0C,1679675125.318361
$GPHDT,091.3,T*3E,1679675125.368298
$SDDBS,00032.8,f,0010.0,M,0005.4,F*08,1679675125.368298
$GPGGA,162523,4738.8337,N,12218.4652,W,2,05,02,+0004,M,-018,M,00,0000*7A,1679675125.601283
$SDDPT,0009.0,001.0*6F,1679675125.601283
$WIMWV,009,R,006,N,A*2C,1679675125.70116
$GPVTG,091.6,T,,,006.4,N,011.8,K*29,1679675125.784345
$PFEC,SDvrm,0000.0*70,1679675125.784345
$YCMTW,094.80,C*0C,1679675125.784345
$VWVHW,,T,,M,05.8,N,10.8,K*50,1679675125.784345
$GPHDT,091.4,T*39,1679675126.306481
$GPGGA,162524,4738.8336,N,12218.4637,W,2,05,02,+0004,M,-018,M,00,0000*7F,1679675126.580366
$GPVTG,091.6,T,,,006.4,N,011.8,K*29,1679675126.646866
$WIMWV,029,R,006,N,A*2E,1679675126.696822
$SDDBT,00029.5,f,0009.0,M,0004.9,F*0C,1679675127.317983
$GPHDT,091.5,T*38,1679675127.367963
$SDDBS,00032.8,f,0010.0,M,0005.4,F*08,1679675127.367963
$GPGGA,162525,4738.8335,N,12218.4604,W,2,05,02,+0004,M,-018,M,00,0000*7D,1679675127.600955
$SDDPT,0009.0,001.0*6F,1679675127.600955
$WIMWV,015,R,005,N,A*22,1679675127.700845
$GPVTG,091.7,T,,,006.4,N,011.8,K*28,1679675127.784038
$PFEC,SDvrm,0000.0*70,1679675127.784038
$YCMTW,094.80,C*0C,1679675127.784038
$VWVHW,,T,,M,05.8,N,10.8,K*50,1679675127.784038
$GPHDT,091.6,T*3B,1679675128.306326
$GPGGA,162526,4738.8334,N,12218.4590,W,2,05,02,+0004,M,-018,M,00,0000*71,1679675128.580744
$GPVTG,091.9,T,,,006.4,N,011.8,K*26,1679675128.653481
$WIMWV,002,R,005,N,A*24,1679675128.732339
$SDDBT,00029.8,f,0009.1,M,0004.9,F*00,1679675129.318393
$GPHDT,091.7,T*3A,1679675129.368507
$SDDBS,00033.1,f,0010.1,M,0005.5,F*00,1679675129.368507
$GPGGA,162527,4738.8333,N,12218.4556,W,2,05,02,+0004,M,-018,M,00,0000*7D,1679675129.601435
$SDDPT,0009.1,001.0*6E,1679675129.601435
$GPVTG,091.9,T,,,006.4,N,011.8,K*26,1679675129.71788
$PFEC,SDvrm,0000.0*70,1679675129.71788
$WIMWV,004,R,004,N,A*23,1679675129.817711
$YCMTW,094.80,C*0C,1679675129.817711
$VWVHW,,T,,M,05.8,N,10.8,K*50,1679675129.817711
$GPHDT,091.9,T*34,1679675130.322263
$GPGGA,162528,4738.8332,N,12218.4523,W,2,05,02,+0004,M,-018,M,00,0000*71,1679675130.595734
$GPVTG,092.0,T,,,006.4,N,011.9,K*2D,1679675130.668511
$WIMWV,001,R,004,N,A*26,1679675130.828096
$SDDBT,00029.8,f,0009.1,M,0004.9,F*00,1679675131.317774
$GPHDT,092.0,T*3E,1679675131.367856
$SDDBS,00033.1,f,0010.1,M,0005.5,F*00,1679675131.367856
$GPGGA,162529,4738.8330,N,12218.4508,W,2,05,02,+0004,M,-018,M,00,0000*7B,1679675131.60069
$SDDPT,0009.1,001.0*6E,1679675131.60069
$GPVTG,092.2,T,,,006.4,N,011.9,K*2F,1679675131.717501
$PFEC,SDvrm,0000.0*70,1679675131.717501
$YCMTW,094.80,C*0C,1679675131.717501
$VWVHW,,T,,M,05.8,N,10.8,K*50,1679675131.717501
$WIMWV,024,R,005,N,A*20,1679675131.931977
$GPHDT,092.0,T*3E,1679675132.307319
$GPGGA,162530,4738.8330,N,12218.4475,W,2,05,02,+0004,M,-018,M,00,0000*78,1679675132.580732
$GPVTG,092.3,T,,,006.4,N,011.9,K*2E,1679675132.653297
$WIMWV,032,R,006,N,A*24,1679675132.925814
$SDDBT,00029.8,f,0009.1,M,0004.9,F*00,1679675133.319045
$GPHDT,092.1,T*3F,1679675133.368831
$SDDBS,00033.1,f,0010.1,M,0005.5,F*00,1679675133.368831
$GPGGA,162531,4738.8330,N,12218.4461,W,2,05,02,+0004,M,-018,M,00,0000*7C,1679675133.601843
$SDDPT,0009.1,001.0*6E,1679675133.601843
$GPVTG,092.4,T,,,006.4,N,011.8,K*28,1679675133.718521
$PFEC,SDvrm,0000.0*70,1679675133.718521
$YCMTW,094.80,C*0C,1679675133.718521
$VWVHW,,T,,M,05.8,N,10.8,K*50,1679675133.718521
$WIMWV,039,R,006,N,A*2F,1679675133.973371
$GPHDT,092.2,T*3C,1679675134.306857
$GPGGA,162532,4738.8329,N,12218.4427,W,2,05,02,+0004,M,-018,M,00,0000*75,1679675134.581382
$GPVTG,092.5,T,,,006.4,N,011.8,K*29,1679675134.65389
$WIMWV,032,R,006,N,A*24,1679675135.021376
$SDDBT,00030.1,f,0009.2,M,0005.0,F*0A,1679675135.319034
$GPHDT,092.3,T*3D,1679675135.368728
$SDDBS,00033.4,f,0010.2,M,0005.5,F*06,1679675135.368728
$GPGGA,162533,4738.8328,N,12218.4394,W,2,05,02,+0004,M,-018,M,00,0000*7A,1679675135.60196
$SDDPT,0009.2,001.0*6D,1679675135.60196
$GPVTG,092.5,T,,,006.4,N,011.8,K*29,1679675135.718389
$PFEC,SDvrm,0000.0*70,1679675135.718389
$YCMTW,094.80,C*0C,1679675135.718389
$VWVHW,,T,,M,05.8,N,10.8,K*50,1679675135.718389
$WIMWV,030,R,005,N,A*25,1679675136.069431
$GPHDT,092.3,T*3D,1679675136.306923
$GPGGA,162534,4738.8327,N,12218.4380,W,2,05,02,+0004,M,-018,M,00,0000*77,1679675136.580518
$GPVTG,092.7,T,,,006.4,N,011.8,K*2B,1679675136.653204
$WIMWV,019,R,005,N,A*2E,1679675137.119252
$SDDBT,00030.1,f,0009.2,M,0005.0,F*0A,1679675137.319016
$GPHDT,092.4,T*3A,1679675137.368998
$SDDBS,00033.4,f,0010.2,M,0005.5,F*06,1679675137.368998
$GPGGA,162535,4738.8327,N,12218.4347,W,2,05,02,+0004,M,-018,M,00,0000*7D,1679675137.602092
$SDDPT,0009.2,001.0*6D,1679675137.602092
$GPVTG,092.7,T,,,006.4,N,011.8,K*2B,1679675137.718518
$PFEC,SDvrm,0000.0*70,1679675137.718518
$YCMTW,094.80,C*0C,1679675137.718518
$VWVHW,,T,,M,05.6,N,10.4,K*52,1679675137.718518
$WIMWV,018,R,004,N,A*2E,1679675138.167542
$GPHDT,092.4,T*3A,1679675138.307488
$GPGGA,162536,4738.8326,N,12218.4312,W,2,05,02,+0004,M,-018,M,00,0000*7F,1679675138.580976
$GPVTG,092.8,T,,,006.4,N,011.8,K*24,1679675138.653495
$WIMWV,357,R,004,N,A*26,1679675139.214508
$SDDBT,00030.5,f,0009.3,M,0005.0,F*0F,1679675139.319409
$GPHDT,092.4,T*3A,1679675139.369433
$SDDBS,00033.7,f,0010.3,M,0005.6,F*07,1679675139.369433
$GPGGA,162537,4738.8324,N,12218.4298,W,2,05,02,+0004,M,-018,M,00,0000*7F,1679675139.602278
$SDDPT,0009.3,001.0*6C,1679675139.602278
$GPVTG,092.7,T,,,006.4,N,011.9,K*2A,1679675139.718801
$PFEC,SDvrm,0000.0*70,1679675139.718801
$YCMTW,094.80,C*0C,1679675139.718801
$VWVHW,,T,,M,05.8,N,10.8,K*50,1679675139.718801
$WIMWV,358,R,004,N,A*29,1679675140.274183
$GPHDT,092.4,T*3A,1679675140.30756
$GPGGA,162538,4738.8323,N,12218.4265,W,2,05,02,+0004,M,-018,M,00,0000*75,1679675140.58126
$GPVTG,092.9,T,,,006.4,N,011.9,K*24,1679675140.654078
$SDDBT,00030.8,f,0009.4,M,0005.1,F*04,1679675141.31856
$WIMWV,003,R,005,N,A*25,1679675141.368656
$GPHDT,092.5,T*3B,1679675141.418451
$SDDBS,00034.1,f,0010.4,M,0005.6,F*01,1679675141.418451
$GPGGA,162539,4738.8322,N,12218.4251,W,2,05,02,+0004,M,-018,M,00,0000*72,1679675141.651633
$SDDPT,0009.4,001.0*6B,1679675141.651633
$GPVTG,092.9,T,,,006.4,N,011.9,K*24,1679675141.784732
$PFEC,SDvrm,0000.0*70,1679675141.784732
$YCMTW,094.80,C*0C,1679675141.784732
$VWVHW,,T,,M,05.8,N,10.8,K*50,1679675141.784732
$GPHDT,092.4,T*3A,1679675142.314321
$WIMWV,014,R,005,N,A*23,1679675142.364298
$GPGGA,162540,4738.8321,N,12218.4217,W,2,05,02,+0004,M,-018,M,00,0000*7D,1679675142.586636
$GPVTG,093.1,T,,,006.4,N,011.9,K*2D,1679675142.659333
$SDDBT,00030.8,f,0009.4,M,0005.1,F*04,1679675143.319382
$GPHDT,092.3,T*3D,1679675143.369143
$SDDBS,00034.1,f,0010.4,M,0005.6,F*01,1679675143.369143
$WIMWV,007,R,004,N,A*20,1679675143.502309
$GPGGA,162541,4738.8319,N,12218.4183,W,2,05,02,+0004,M,-018,M,00,0000*79,1679675143.652101
$SDDPT,0009.4,001.0*6B,1679675143.652101
$GPVTG,093.1,T,,,006.4,N,011.9,K*2D,1679675143.785291
$PFEC,SDvrm,0000.0*70,1679675143.785291
$YCMTW,094.80,C*0C,1679675143.785291
$VWVHW,,T,,M,05.8,N,10.8,K*50,1679675143.785291
$GPHDT,092.3,T*3D,1679675144.316085
$WIMWV,015,R,004,N,A*23,1679675144.463092
$GPGGA,162542,4738.8318,N,12218.4170,W,2,05,02,+0004,M,-018,M,00,0000*77,1679675144.613053
$GPVTG,093.2,T,,,006.4,N,011.9,K*2E,1679675144.679621
$SDDBT,00030.5,f,0009.3,M,0005.0,F*0F,1679675145.319664
$GPHDT,092.2,T*3C,1679675145.369709
$SDDBS,00033.7,f,0010.3,M,0005.6,F*07,1679675145.369709
$GPGGA,162543,4738.8318,N,12218.4137,W,2,05,02,+0004,M,-018,M,00,0000*75,1679675145.602453
$SDDPT,0009.3,001.0*6C,1679675145.602453
$WIMWV,020,R,004,N,A*25,1679675145.702628
$GPVTG,093.2,T,,,006.4,N,011.9,K*2E,1679675145.785671
$PFEC,SDvrm,0000.0*70,1679675145.785671
$YCMTW,094.80,C*0C,1679675145.785671
$VWVHW,,T,,M,05.8,N,10.8,K*50,1679675145.785671
$GPHDT,092.1,T*3F,1679675146.30801
$GPGGA,162544,4738.8317,N,12218.4103,W,2,05,02,+0004,M,-018,M,00,0000*7A,1679675146.581794
$WIMWV,018,R,004,N,A*2E,1679675146.631343
$GPVTG,093.1,T,,,006.4,N,011.9,K*2D,1679675146.698325
$SDDBT,00030.1,f,0009.2,M,0005.0,F*0A,1679675147.319386
$GPHDT,092.0,T*3E,1679675147.369295
$SDDBS,00033.4,f,0010.2,M,0005.5,F*06,1679675147.369295
$GPGGA,162545,4738.8316,N,12218.4090,W,2,05,02,+0004,M,-018,M,00,0000*71,1679675147.602281
$SDDPT,0009.2,001.0*6D,1679675147.602281
$WIMWV,032,R,003,N,A*21,1679675147.701955
$GPVTG,093.1,T,,,006.4,N,011.9,K*2D,1679675147.785301
$PFEC,SDvrm,0000.0*70,1679675147.785301
$YCMTW,094.80,C*0C,1679675147.785301
$VWVHW,,T,,M,05.8,N,10.8,K*50,1679675147.785301
$GPHDT,091.9,T*34,1679675148.308454
$GPGGA,162546,4738.8315,N,12218.4056,W,2,05,02,+0004,M,-018,M,00,0000*7B,1679675148.582092
$GPVTG,093.1,T,,,006.4,N,011.9,K*2D,1679675148.648583
$WIMWV,045,R,003,N,A*21,1679675148.698646
$SDDBT,00029.8,f,0009.1,M,0004.9,F*00,1679675149.320113
$GPHDT,091.7,T*3A,1679675149.369965
$SDDBS,00033.1,f,0010.1,M,0005.5,F*00,1679675149.369965
$GPGGA,162547,4738.8314,N,12218.4022,W,2,05,02,+0004,M,-018,M,00,0000*78,1679675149.602831
$SDDPT,0009.1,001.0*6E,1679675149.602831
$WIMWV,041,R,003,N,A*25,1679675149.702686
$GPVTG,093.2,T,,,006.4,N,011.9,K*2E,1679675149.785864
$PFEC,SDvrm,0000.0*70,1679675149.785864
$YCMTW,094.80,C*0C,1679675149.785864
$VWVHW,,T,,M,05.8,N,10.8,K*50,1679675149.785864
$GPHDT,091.1,T*3C,1679675150.308235
$GPGGA,162548,4738.8313,N,12218.4009,W,2,05,02,+0004,M,-018,M,00,0000*79,1679675150.581659
$GPVTG,093.0,T,,,006.4,N,011.9,K*2C,1679675150.654437
$WIMWV,026,R,002,N,A*25,1679675150.747453
$SDDBT,00029.8,f,0009.1,M,0004.9,F*00,1679675151.319178
$GPHDT,090.2,T*3E,1679675151.369154
$SDDBS,00033.1,f,0010.1,M,0005.5,F*00,1679675151.369154
$GPGGA,162549,4738.8311,N,12218.3975,W,2,05,02,+0004,M,-018,M,00,0000*7F,1679675151.60204
$SDDPT,0009.1,001.0*6E,1679675151.60204
$GPVTG,092.9,T,,,006.4,N,011.9,K*24,1679675151.718764
$PFEC,SDvrm,0000.0*70,1679675151.718764
$WIMWV,356,R,002,N,A*21,1679675151.818614
$YCMTW,094.80,C*0C,1679675151.818614
$VWVHW,,T,,M,05.8,N,10.8,K*50,1679675151.818614
$GPHDT,089.1,T*35,1679675152.323402
$GPGGA,162550,4738.8311,N,12218.3942,W,2,05,02,+0004,M,-018,M,00,0000*73,1679675152.596639
$GPVTG,092.8,T,,,006.4,N,011.9,K*25,1679675152.66972
$WIMWV,335,R,002,N,A*24,1679675152.842886
$SDDBT,00029.8,f,0009.1,M,0004.9,F*00,1679675153.320163
$GPHDT,088.0,T*35,1679675153.370039
$SDDBS,00033.1,f,0010.1,M,0005.5,F*00,1679675153.370039
$GPGGA,162551,4738.8310,N,12218.3928,W,2,05,02,+0004,M,-018,M,00,0000*7F,1679675153.60316
$SDDPT,0009.1,001.0*6E,1679675153.60316
$GPVTG,092.6,T,,,006.4,N,011.9,K*2B,1679675153.719692
$PFEC,SDvrm,0000.0*70,1679675153.719692
$YCMTW,094.80,C*0C,1679675153.719692
$VWVHW,,T,,M,05.6,N,10.4,K*52,1679675153.719692
$WIMWV,329,R,002,N,A*29,1679675153.933964
$GPHDT,086.9,T*32,1679675154.308292
$GPGGA,162552,4738.8309,N,12218.3894,W,2,05,02,+0004,M,-018,M,00,0000*72,1679675154.58193
$GPVTG,092.3,T,,,006.4,N,011.9,K*2E,1679675154.654578
$WIMWV,333,R,003,N,A*23,1679675154.940952
$SDDBT,00030.1,f,0009.2,M,0005.0,F*0A,1679675155.320539
$GPHDT,086.0,T*3B,1679675155.370436
$SDDBS,00033.4,f,0010.2,M,0005.5,F*06,1679675155.370436
$GPGGA,162553,4738.8309,N,12218.3880,W,2,05,02,+0004,M,-018,M,00,0000*76,1679675155.603378
$SDDPT,0009.2,001.0*6D,1679675155.603378
$GPVTG,091.8,T,,,006.4,N,011.9,K*26,1679675155.719969
$PFEC,SDvrm,0000.0*70,1679675155.719969
$YCMTW,094.80,C*0C,1679675155.719969
$VWVHW,,T,,M,05.6,N,10.4,K*52,1679675155.719969
$WIMWV,336,R,002,N,A*27,1679675155.988841
$GPHDT,085.6,T*3E,1679675156.308174
$GPGGA,162554,4738.8310,N,12218.3846,W,2,05,02,+0004,M,-018,M,00,0000*73,1679675156.581946
$GPVTG,091.2,T,,,006.4,N,011.9,K*2C,1679675156.654595
$WIMWV,332,R,002,N,A*23,1679675157.035473
$SDDBT,00030.1,f,0009.2,M,0005.0,F*0A,1679675157.320595
$GPHDT,085.7,T*3F,1679675157.37023
$SDDBS,00033.4,f,0010.2,M,0005.5,F*06,1679675157.37023
$GPGGA,162555,4738.8311,N,12218.3812,W,2,05,02,+0004,M,-018,M,00,0000*72,1679675157.60339
$SDDPT,0009.2,001.0*6D,1679675157.60339
$GPVTG,090.2,T,,,006.4,N,011.8,K*2C,1679675157.719875
$PFEC,SDvrm,0000.0*70,1679675157.719875
$YCMTW,094.80,C*0C,1679675157.719875
$VWVHW,,T,,M,05.6,N,10.4,K*52,1679675157.719875
$WIMWV,339,R,002,N,A*28,1679675158.084754
$GPHDT,086.2,T*39,1679675158.308588
$GPGGA,162556,4738.8311,N,12218.3798,W,2,05,02,+0004,M,-018,M,00,0000*7C,1679675158.582025
$GPVTG,089.4,T,,,006.4,N,011.8,K*22,1679675158.654852
$WIMWV,353,R,002,N,A*24,1679675159.133717
$SDDBT,00030.5,f,0009.3,M,0005.0,F*0F,1679675159.320553
$GPHDT,086.6,T*3D,1679675159.370468
$SDDBS,00033.7,f,0010.3,M,0005.6,F*07,1679675159.370468
$GPGGA,162557,4738.8312,N,12218.3764,W,2,05,02,+0004,M,-018,M,00,0000*7D,1679675159.603424
$SDDPT,0009.3,001.0*6C,1679675159.603424
$GPVTG,088.8,T,,,006.3,N,011.8,K*28,1679675159.719694
$PFEC,SDvrm,0000.0*70,1679675159.719694
$YCMTW,094.80,C*0C,1679675159.719694
$VWVHW,,T,,M,05.4,N,10.0,K*54,1679675159.719694
$WIMWV,005,R,002,N,A*24,1679675160.181744
$GPHDT,086.9,T*32,1679675160.308963
$GPGGA,162558,4738.8313,N,12218.3749,W,2,05,02,+0004,M,-018,M,00,0000*7C,1679675160.582314
$GPVTG,088.4,T,,,006.3,N,011.7,K*2B,1679675160.655129
$WIMWV,008,R,001,N,A*2A,1679675161.22885
$SDDBT,00031.1,f,0009.5,M,0005.1,F*0D,1679675161.320671
$GPHDT,087.1,T*3B,1679675161.370702
$SDDBS,00034.4,f,0010.5,M,0005.7,F*04,1679675161.370702
$GPGGA,162559,4738.8314,N,12218.3715,W,2,05,02,+0004,M,-018,M,00,0000*73,1679675161.603658
$SDDPT,0009.5,001.0*6A,1679675161.603658
$GPVTG,088.0,T,,,006.3,N,011.6,K*2E,1679675161.720106
$PFEC,SDvrm,0000.0*70,1679675161.720106
$YCMTW,094.80,C*0C,1679675161.720106
$VWVHW,,T,,M,05.4,N,10.0,K*54,1679675161.720106
$WIMWV,005,R,001,N,A*27,1679675162.283639
$GPHDT,087.1,T*3B,1679675162.317037
$GPGGA,162600,4738.8315,N,12218.3701,W,2,05,02,+0004,M,-018,M,00,0000*78,1679675162.582322
$GPVTG,087.9,T,,,006.3,N,011.6,K*28,1679675162.655053
$SDDBT,00031.1,f,0009.5,M,0005.1,F*0D,1679675163.32055
$WIMWV,005,R,001,N,A*27,1679675163.370466
$GPHDT,086.8,T*33,1679675163.420409
$SDDBS,00034.4,f,0010.5,M,0005.7,F*04,1679675163.420409
$GPGGA,162601,4738.8314,N,12218.3667,W,2,05,02,+0004,M,-018,M,00,0000*79,1679675163.653569
$SDDPT,0009.5,001.0*6A,1679675163.653569
$GPVTG,088.0,T,,,006.3,N,011.6,K*2E,1679675163.786583
$PFEC,SDvrm,0000.0*70,1679675163.786583
$YCMTW,094.80,C*0C,1679675163.786583
$VWVHW,,T,,M,05.6,N,10.4,K*52,1679675163.786583
$GPHDT,086.5,T*3E,1679675164.314039
$WIMWV,001,R,000,N,A*22,1679675164.375725
$GPGGA,162602,4738.8315,N,12218.3633,W,2,05,02,+0004,M,-018,M,00,0000*7A,1679675164.587807
$GPVTG,088.1,T,,,006.3,N,011.6,K*2F,1679675164.660701
$SDDBT,00030.1,f,0009.2,M,0005.0,F*0A,1679675165.321123
$GPHDT,086.1,T*3A,1679675165.371021
$SDDBS,00033.4,f,0010.2,M,0005.5,F*06,1679675165.371021
$WIMWV,358,R,000,N,A*2D,1679675165.504217
$GPGGA,162603,4738.8315,N,12218.3619,W,2,05,02,+0004,M,-018,M,00,0000*73,1679675165.654065
$SDDPT,0009.2,001.0*6D,1679675165.654065
$GPVTG,088.1,T,,,006.3,N,011.7,K*2E,1679675165.787207
$PFEC,SDvrm,0000.0*70,1679675165.787207
$YCMTW,094.80,C*0C,1679675165.787207
$VWVHW,,T,,M,05.6,N,10.4,K*52,1679675165.787207
$GPHDT,085.7,T*3F,1679675166.308538
$WIMWV,000,R,000,N,A*23,1679675166.477369
$GPGGA,162604,4738.8316,N,12218.3585,W,2,05,02,+0004,M,-018,M,00,0000*71,1679675166.627163
$GPVTG,088.1,T,,,006.3,N,011.7,K*2E,1679675166.693813
$SDDBT,00030.8,f,0009.4,M,0005.1,F*04,1679675167.321548
$GPHDT,085.4,T*3C,1679675167.371258
$SDDBS,00034.1,f,0010.4,M,0005.6,F*01,1679675167.371258
$GPGGA,162605,4738.8316,N,12218.3570,W,2,05,02,+0004,M,-018,M,00,0000*7A,1679675167.604392
$SDDPT,0009.4,001.0*6B,1679675167.604392
$WIMWV,023,R,000,N,A*22,1679675167.704226
$GPVTG,088.1,T,,,006.3,N,011.7,K*2E,1679675167.787384
$PFEC,SDvrm,0000.0*70,1679675167.787384
$YCMTW,094.80,C*0C,1679675167.787384
$VWVHW,,T,,M,05.6,N,10.4,K*52,1679675167.787384
$GPHDT,085.4,T*3C,1679675168.309512
$GPGGA,162606,4738.8317,N,12218.3537,W,2,05,02,+0004,M,-018,M,00,0000*7B,1679675168.583294
$WIMWV,050,R,001,N,A*27,1679675168.632863
$GPVTG,087.9,T,,,006.3,N,011.7,K*29,1679675168.699893
$SDDBT,00030.8,f,0009.4,M,0005.1,F*04,1679675169.321685
$GPHDT,085.5,T*3D,1679675169.371624
$SDDBS,00034.1,f,0010.4,M,0005.6,F*01,1679675169.371624
$GPGGA,162607,4738.8319,N,12218.3503,W,2,05,02,+0004,M,-018,M,00,0000*73,1679675169.604504
$SDDPT,0009.4,001.0*6B,1679675169.604504
$WIMWV,057,R,002,N,A*23,1679675169.70431
$GPVTG,087.5,T,,,006.3,N,011.8,K*2A,1679675169.787357
$PFEC,SDvrm,0000.0*70,1679675169.787357
$YCMTW,094.80,C*0C,1679675169.787357
$VWVHW,,T,,M,05.8,N,10.8,K*50,1679675169.787357
$GPHDT,085.4,T*3C,1679675170.309921
$GPGGA,162608,4738.8320,N,12218.3489,W,2,05,02,+0004,M,-018,M,00,0000*75,1679675170.583306
$GPVTG,087.4,T,,,006.4,N,011.8,K*2C,1679675170.649836
$WIMWV,039,R,002,N,A*2B,1679675170.699593
$SDDBT,00030.8,f,0009.4,M,0005.1,F*04,1679675171.321201
$GPHDT,085.3,T*3B,1679675171.371093
$SDDBS,00034.1,f,0010.4,M,0005.6,F*01,1679675171.371093
$GPGGA,162609,4738.8321,N,12218.3455,W,2,05,02,+0004,M,-018,M,00,0000*74,1679675171.604315
$SDDPT,0009.4,001.0*6B,1679675171.604315
$GPVTG,087.2,T,,,006.3,N,011.8,K*2D,1679675171.720807
$PFEC,SDvrm,0000.0*70,1679675171.720807
$WIMWV,012,R,002,N,A*22,1679675171.820634
$YCMTW,094.80,C*0C,1679675171.820634
$VWVHW,,T,,M,05.6,N,10.4,K*52,1679675171.820634
$GPHDT,085.4,T*3C,1679675172.309498
$GPGGA,162610,4738.8322,N,12218.3441,W,2,05,02,+0004,M,-018,M,00,0000*7A,1679675172.582944
$GPVTG,087.0,T,,,006.3,N,011.7,K*20,1679675172.655678
$WIMWV,348,R,002,N,A*2E,1679675172.761884
$SDDBT,00030.1,f,0009.2,M,0005.0,F*0A,1679675173.321011
$GPHDT,085.4,T*3C,1679675173.370777
$SDDBS,00033.4,f,0010.2,M,0005.5,F*06,1679675173.370777
$GPGGA,162611,4738.8323,N,12218.3406,W,2,05,02,+0004,M,-018,M,00,0000*79,1679675173.603787
$SDDPT,0009.2,001.0*6D,1679675173.603787
$GPVTG,086.9,T,,,006.3,N,011.7,K*28,1679675173.720327
$PFEC,SDvrm,0000.0*70,1679675173.720327
$WIMWV,351,R,002,N,A*26,1679675173.820192
$YCMTW,094.80,C*0C,1679675173.820192
$VWVHW,,T,,M,05.2,N,09.7,K*5D,1679675173.820192
$GPHDT,085.2,T*3A,1679675174.324947
$GPGGA,162612,4738.8323,N,12218.3373,W,2,05,02,+0004,M,-018,M,00,0000*7F,1679675174.598211
$GPVTG,086.8,T,,,006.3,N,011.7,K*29,1679675174.671286
$WIMWV,009,R,002,N,A*28,1679675174.85738
$SDDBT,00030.5,f,0009.3,M,0005.0,F*0F,1679675175.321476
$GPHDT,085.1,T*39,1679675175.371475
$SDDBS,00033.7,f,0010.3,M,0005.6,F*07,1679675175.371475
$GPGGA,162613,4738.8323,N,12218.3358,W,2,05,02,+0004,M,-018,M,00,0000*77,1679675175.60452
$SDDPT,0009.3,001.0*6C,1679675175.60452
$GPVTG,086.7,T,,,006.2,N,011.6,K*26,1679675175.721148
$PFEC,SDvrm,0000.0*70,1679675175.721148
$YCMTW,094.80,C*0C,1679675175.721148
$VWVHW,,T,,M,05.2,N,09.7,K*5D,1679675175.721148
$WIMWV,015,R,002,N,A*25,1679675175.935534
$GPHDT,085.1,T*39,1679675176.309615
$GPGGA,162614,4738.8324,N,12218.3322,W,2,05,02,+0004,M,-018,M,00,0000*7A,1679675176.583308
$GPVTG,086.7,T,,,006.2,N,011.4,K*24,1679675176.656028
$WIMWV,011,R,002,N,A*21,1679675176.955269
$SDDBT,00030.1,f,0009.2,M,0005.0,F*0A,1679675177.321681
$GPHDT,085.1,T*39,1679675177.371717
$SDDBS,00033.4,f,0010.2,M,0005.5,F*06,1679675177.371717
$GPGGA,162615,4738.8325,N,12218.3307,W,2,05,02,+0004,M,-018,M,00,0000*7D,1679675177.604738
$SDDPT,0009.2,001.0*6D,1679675177.604738
$GPVTG,086.7,T,,,006.1,N,011.3,K*20,1679675177.721324
$PFEC,SDvrm,0000.0*70,1679675177.721324
$YCMTW,094.80,C*0C,1679675177.721324
$VWVHW,,T,,M,05.0,N,09.3,K*5B,1679675177.721324
$WIMWV,004,R,001,N,A*26,1679675178.004159
$GPHDT,085.3,T*3B,1679675178.310042
$GPGGA,162616,4738.8327,N,12218.3291,W,2,05,02,+0004,M,-018,M,00,0000*72,1679675178.583557
$GPVTG,086.4,T,,,006.0,N,011.2,K*23,1679675178.65641
$WIMWV,350,R,001,N,A*24,1679675179.052176
$SDDBT,00030.1,f,0009.2,M,0005.0,F*0A,1679675179.322264
$GPHDT,085.6,T*3E,1679675179.372033
$SDDBS,00033.4,f,0010.2,M,0005.5,F*06,1679675179.372033
$GPGGA,162617,4738.8327,N,12218.3255,W,2,05,02,+0004,M,-018,M,00,0000*7B,1679675179.604826
$SDDPT,0009.2,001.0*6D,1679675179.604826
$GPVTG,086.3,T,,,006.0,N,011.1,K*27,1679675179.721466
$PFEC,SDvrm,0000.0*70,1679675179.721466
$YCMTW,094.80,C*0C,1679675179.721466
$VWVHW,,T,,M,05.0,N,09.3,K*5B,1679675179.721466
$WIMWV,339,R,001,N,A*2B,1679675180.099248
$GPHDT,085.9,T*31,1679675180.3103
$GPGGA,162618,4738.8328,N,12218.3237,W,2,05,02,+0004,M,-018,M,00,0000*7F,1679675180.583682
$GPVTG,086.3,T,,,005.9,N,011.0,K*2C,1679675180.656355
$WIMWV,329,R,001,N,A*2A,1679675181.149092
$SDDBT,00030.1,f,0009.2,M,0005.0,F*0A,1679675181.32205
$GPHDT,086.2,T*39,1679675181.372294
$SDDBS,00033.4,f,0010.2,M,0005.5,F*06,1679675181.372294
$GPGGA,162619,4738.8330,N,12218.3221,W,2,05,02,+0004,M,-018,M,00,0000*70,1679675181.604975
$SDDPT,0009.2,001.0*6D,1679675181.604975
$GPVTG,086.3,T,,,005.9,N,010.9,K*24,1679675181.72172
$PFEC,SDvrm,0000.0*70,1679675181.72172
$YCMTW,094.80,C*0C,1679675181.72172
$VWVHW,,T,,M,05.2,N,09.7,K*5D,1679675181.72172
$WIMWV,312,R,001,N,A*22,1679675182.197286
$GPHDT,086.4,T*3F,1679675182.310615
$GPGGA,162620,4738.8331,N,12218.3184,W,2,05,02,+0004,M,-018,M,00,0000*77,1679675182.584055
$GPVTG,086.3,T,,,005.8,N,010.8,K*24,1679675182.656702
$WIMWV,289,R,000,N,A*20,1679675183.253508
$SDDBT,00030.1,f,0009.2,M,0005.0,F*0A,1679675183.319669
$GPHDT,086.3,T*38,1679675183.369805
$SDDBS,00033.4,f,0010.2,M,0005.5,F*06,1679675183.369805
$GPGGA,162621,4738.8332,N,12218.3168,W,2,05,02,+0004,M,-018,M,00,0000*77,1679675183.603036
$SDDPT,0009.2,001.0*6D,1679675183.603036
$GPVTG,086.3,T,,,005.8,N,010.7,K*2B,1679675183.736086
$PFEC,SDvrm,0000.0*70,1679675183.736086
$YCMTW,094.80,C*0C,1679675183.736086
$VWVHW,,T,,M,05.2,N,09.7,K*5D,1679675183.736086
$WIMWV,271,R,000,N,A*27,1679675184.298482
$GPHDT,086.1,T*3A,1679675184.331803
$GPGGA,162622,4738.8333,N,12218.3151,W,2,05,02,+0004,M,-018,M,00,0000*7F,1679675184.583836
$GPVTG,086.7,T,,,005.7,N,010.6,K*21,1679675184.656342
$SDDBT,00030.1,f,0009.2,M,0005.0,F*0A,1679675185.322508
$WIMWV,265,R,000,N,A*22,1679675185.372459
$GPHDT,085.8,T*30,1679675185.422555
$SDDBS,00033.4,f,0010.2,M,0005.5,F*06,1679675185.422555
$GPGGA,162623,4738.8334,N,12218.3114,W,2,05,02,+0004,M,-018,M,00,0000*78,1679675185.655323
$SDDPT,0009.2,001.0*6D,1679675185.655323
$GPVTG,087.0,T,,,005.7,N,010.6,K*27,1679675185.78852
$PFEC,SDvrm,0000.0*70,1679675185.78852
$YCMTW,094.80,C*0C,1679675185.78852
$VWVHW,,T,,M,05.0,N,09.3,K*5B,1679675185.78852
$GPHDT,085.6,T*3E,1679675186.315667
$WIMWV,269,R,001,N,A*2F,1679675186.390144
$GPGGA,162624,4738.8334,N,12218.3099,W,2,05,02,+0004,M,-018,M,00,0000*7B,1679675186.588872
$GPVTG,087.0,T,,,005.7,N,010.5,K*24,1679675186.66168
$SDDBT,00029.8,f,0009.1,M,0004.9,F*00,1679675187.322334
$GPHDT,085.4,T*3C,1679675187.372218
