$GPGGA,192627.50,3552.52698161,N,07539.68101266,W,2,08,0.9,-1.514,M,-36.497,M,6.5,0131*53
$HCHDM,258.80,M*1E
$PASHR,192627.00,251.10,T,-0.34,-3.99,0.05,0.207,0.548,0.155,1*3F
$GPGGA,192628.40,3552.52696348,N,07539.68104930,W,2,08,0.9,-1.512,M,-36.497,M,7.4,0131*51
$GPVTG,222.19,T,233.29,M,0.14,N,0.25,K,D*27
$GPHDT,250.974,T*38
$PASHR,192628.00,251.06,T,-0.29,-3.78,0.05,0.194,0.570,0.145,1*37
$HCHDM,258.43,M*11
$GPHDT,250.835,T*3C
$GPVTG,258.13,T,269.23,M,0.21,N,0.40,K,D*20
$GPGGA,192629.40,3552.52694032,N,07539.68111490,W,2,08,0.9,-1.504,M,-36.497,M,7.4,0131*58
$HCHDM,258.90,M*1F
$PASHR,192629.00,250.91,T,0.07,-3.99,0.05,0.181,0.585,0.135,1*1E
$GPVTG,261.81,T,272.91,M,0.28,N,0.53,K,D*29
$GPGGA,192630.40,3552.52692637,N,07539.68121233,W,2,08,0.9,-1.496,M,-36.497,M,7.4,0131*53
$GPHDT,250.517,T*31
$HCHDM,260.28,M*17
$PASHR,192630.00,250.66,T,-0.18,-4.01,0.05,0.172,0.580,0.128,1*3E
$GPGGA,192631.30,3552.52690071,N,07539.68132306,W,2,08,0.9,-1.487,M,-36.497,M,4.3,0131*52
$GPHDT,250.343,T*36
$GPVTG,246.05,T,257.16,M,0.37,N,0.69,K,D*2F
$HCHDM,261.73,M*18
$PASHR,192631.00,250.44,T,-0.20,-3.92,0.06,0.172,0.574,0.128,1*31
$GPVTG,262.37,T,273.47,M,0.46,N,0.85,K,D*2E
$GPGGA,192632.30,3552.52687251,N,07539.68147837,W,2,08,0.9,-1.478,M,-36.497,M,5.3,0131*5D
$GPHDT,250.423,T*37
$PASHR,192632.00,250.39,T,-0.19,-4.08,0.06,0.166,0.587,0.123,1*34
$HCHDM,262.91,M*17
$GPVTG,253.60,T,264.71,M,0.48,N,0.89,K,D*2F
$GPHDT,250.693,T*3E
$GPGGA,192633.20,3552.52684973,N,07539.68162449,W,2,08,0.9,-1.478,M,-36.497,M,6.2,0131*55
$PASHR,192633.00,250.58,T,-0.27,-3.87,0.07,0.159,0.551,0.118,1*31
$HCHDM,263.72,M*1B
$GPVTG,265.97,T,277.07,M,0.48,N,0.89,K,D*21
$GPHDT,251.110,T*33
$GPGGA,192634.20,3552.52682350,N,07539.68178459,W,2,08,0.9,-1.480,M,-36.497,M,7.2,0131*53
$HCHDM,264.32,M*18
$PASHR,192634.00,251.00,T,-0.17,-3.96,0.06,0.158,0.524,0.117,1*34
$GPGGA,192635.20,3552.52680658,N,07539.68195674,W,2,08,0.9,-1.481,M,-36.497,M,7.2,0131*52
$GPVTG,269.52,T,280.62,M,0.50,N,0.93,K,D*2D
$GPHDT,251.880,T*33
$PASHR,192635.00,251.67,T,-0.29,-3.99,0.06,0.157,0.525,0.117,1*38
$HCHDM,264.24,M*1F
$GPVTG,271.12,T,282.22,M,0.50,N,0.92,K,D*27
$GPGGA,192636.10,3552.52678511,N,07539.68210771,W,2,08,0.9,-1.480,M,-36.497,M,7.1,0131*53
$GPHDT,252.573,T*31
$PASHR,192636.00,252.49,T,-0.13,-3.83,0.06,0.168,0.508,0.125,1*34
$HCHDM,263.58,M*13
$GPVTG,260.42,T,271.52,M,0.49,N,0.91,K,D*22
$GPHDT,253.274,T*30
$GPGGA,192637.10,3552.52677120,N,07539.68227904,W,2,08,0.9,-1.457,M,-36.497,M,4.1,0131*5A
$PASHR,192637.00,253.16,T,-0.06,-4.06,0.07,0.172,0.509,0.128,1*36
$HCHDM,262.40,M*1B
$GPHDT,253.607,T*30
$GPGGA,192637.60,3552.52676574,N,07539.68236474,W,2,08,0.9,-1.442,M,-36.497,M,4.6,0131*50
$GPVTG,272.93,T,284.03,M,0.50,N,0.92,K,D*28
$GPHDT,254.211,T*34
$GPGGA,192638.50,3552.52675228,N,07539.68251471,W,2,08,0.9,-1.419,M,-36.497,M,5.5,0131*59
$GPVTG,255.25,T,266.36,M,0.48,N,0.88,K,D*28
$PASHR,192638.00,253.80,T,-0.24,-3.80,0.10,0.171,0.501,0.127,1*3D
$HCHDM,258.01,M*17
$GPHDT,245.986,T*31
$GPGGA,192655.70,3552.52573157,N,07539.68792909,W,2,08,0.9,-1.393,M,-36.497,M,4.7,0131*50
$GPVTG,250.58,T,261.69,M,1.30,N,2.42,K,D*20
$PASHR,192656.00,245.59,T,-0.59,-3.21,0.03,0.162,0.506,0.119,1*3D
$HCHDM,254.52,M*1D
$GPVTG,247.71,T,258.82,M,1.32,N,2.45,K,D*27
$GPHDT,243.668,T*38
$GPGGA,192656.70,3552.52559870,N,07539.68834798,W,2,08,0.9,-1.416,M,-36.497,M,5.7,0131*59
$PASHR,192657.00,243.17,T,-0.62,-3.34,0.01,0.162,0.510,0.118,1*38
$HCHDM,249.44,M*16
$GPHDT,241.254,T*31
$GPGGA,192657.70,3552.52546282,N,07539.68876398,W,2,08,0.9,-1.421,M,-36.497,M,6.7,0131*54
$GPVTG,246.84,T,257.95,M,1.30,N,2.41,K,D*23
$PASHR,192658.00,240.44,T,-0.76,-3.14,-0.00,0.163,0.518,0.118,1*10
$HCHDM,244.07,M*1C
$GPVTG,249.46,T,260.56,M,1.23,N,2.28,K,D*24
$GPGGA,192658.60,3552.52533819,N,07539.68911574,W,2,08,0.9,-1.417,M,-36.497,M,6.6,0131*50
$GPHDT,238.483,T*33
$PASHR,192659.00,237.77,T,-0.78,-3.14,0.00,0.177,0.537,0.127,1*36
$HCHDM,239.69,M*1E
$GPVTG,242.15,T,253.26,M,1.19,N,2.21,K,D*2E
$GPHDT,236.270,T*37
$GPGGA,192659.60,3552.52518953,N,07539.68948003,W,2,08,0.9,-1.437,M,-36.497,M,6.6,0131*5C
$HCHDM,236.00,M*1E
$PASHR,192700.00,235.23,T,-0.57,-3.27,-0.01,0.196,0.541,0.140,1*16
$GPHDT,233.951,T*3A
$GPGGA,192700.50,3552.52504676,N,07539.68979031,W,2,08,0.9,-1.428,M,-36.497,M,7.5,0131*58
$GPVTG,236.11,T,247.21,M,1.16,N,2.16,K,D*20
$HCHDM,233.07,M*1C
$PASHR,192701.00,233.18,T,-0.77,-3.27,0.01,0.195,0.523,0.139,1*3F
$GPHDT,232.128,T*3D
$GPGGA,192701.50,3552.52488356,N,07539.69012224,W,2,08,0.9,-1.421,M,-36.497,M,4.5,0131*52
$GPVTG,236.71,T,247.81,M,1.14,N,2.10,K,D*28
$PASHR,192701.00,233.18,T,-0.77,-3.27,0.01,0.195,0.523,0.139,1*3F
$HCHDM,231.18,M*10
$GPHDT,230.339,T*3D
$GPGGA,192702.50,3552.52472816,N,07539.69040031,W,2,08,0.9,-1.417,M,-36.497,M,5.5,0131*5E
$GPVTG,237.43,T,248.54,M,0.99,N,1.83,K,D*22
$HCHDM,229.52,M*17
$PASHR,192702.00,231.18,T,-0.61,-3.40,0.01,0.189,0.554,0.135,1*39
$GPHDT,228.828,T*3F
$GPGGA,192703.40,3552.52464891,N,07539.69055083,W,2,08,0.9,-1.433,M,-36.497,M,6.4,0131*5F
$GPVTG,226.76,T,237.87,M,0.58,N,1.06,K,D*22
$HCHDM,227.84,M*12
$PASHR,192703.00,229.58,T,-0.67,-3.24,-0.00,0.176,0.688,0.125,1*1E
$GPHDT,227.647,T*37
$GPGGA,192704.40,3552.52465477,N,07539.69060037,W,2,08,0.9,-1.443,M,-36.497,M,7.4,0131*52
$GPVTG,347.28,T,358.39,M,0.16,N,0.30,K,D*2C
$HCHDM,226.16,M*18
$PASHR,192704.00,228.12,T,-0.60,-3.55,-0.01,0.165,0.810,0.117,1*1A
$GPGGA,192705.30,3552.52474186,N,07539.69054565,W,2,08,0.9,-1.427,M,-36.497,M,7.3,0131*5F
$GPVTG,31.98,T,43.08,M,0.37,N,0.69,K,D*21
$GPHDT,226.542,T*30
$HCHDM,226.16,M*18
$PASHR,192705.00,226.97,T,-0.70,-3.57,-0.01,0.167,0.511,0.118,1*1A
$GPHDT,225.611,T*36
$GPVTG,43.54,T,54.65,M,0.70,N,1.29,K,D*2F
$GPGGA,192706.30,3552.52489410,N,07539.69038133,W,2,08,0.9,-1.417,M,-36.497,M,7.3,0131*5A
$HCHDM,223.18,M*13
$PASHR,192706.00,225.90,T,-0.71,-3.25,0.01,0.160,0.735,0.114,1*3B
$GPVTG,39.58,T,50.69,M,0.71,N,1.31,K,D*2E
$GPHDT,275.473,T*35
$GPGGA,192707.30,3552.52504237,N,07539.69021434,W,2,08,0.9,-1.432,M,-36.497,M,4.3,0131*52
$HCHDM,216.95,M*10
$PASHR,192707.00,224.93,T,-0.17,-3.81,-0.01,0.167,0.625,0.119,1*11
$GPVTG,23.54,T,34.64,M,0.68,N,1.26,K,D*28
$GPHDT,276.050,T*33
$GPGGA,192708.20,3552.52518274,N,07539.69009557,W,2,08,0.9,-1.432,M,-36.497,M,5.2,0131*58
$PASHR,192708.00,275.89,T,-0.83,-3.88,-0.01,0.541,0.541,0.120,1*1E
$HCHDM,211.60,M*1D
$GPHDT,276.594,T*3E
$GPVTG,50.67,T,61.77,M,0.64,N,1.19,K,D*2E
$GPGGA,192709.20,3552.52532162,N,07539.68995378,W,2,08,0.9,-1.446,M,-36.497,M,6.2,0131*53
$PASHR,192709.00,276.43,T,-0.80,-3.43,-0.01,0.505,0.505,0.120,1*1E
$HCHDM,207.13,M*1E
$GPHDT,277.097,T*39
$GPGGA,192710.20,3552.52545503,N,07539.68981956,W,2,08,0.9,-1.471,M,-36.497,M,7.2,0131*5E
$GPVTG,31.29,T,42.39,M,0.62,N,1.16,K,D*21
$HCHDM,203.24,M*1E
$PASHR,192710.00,276.98,T,-0.81,-3.86,-0.04,0.516,0.516,0.120,1*1D
$GPGGA,192727.40,3552.52538308,N,07539.68995774,W,2,08,0.9,-1.416,M,-36.497,M,6.4,0131*56
$GPVTG,9.76,T,20.87,M,0.11,N,0.21,K,D*10
$GPHDT,304.103,T*30
$HCHDM,199.84,M*14
$PASHR,192727.00,303.55,T,-0.41,-4.22,0.03,0.537,0.537,0.120,1*34
$GPGGA,192728.40,3552.52542841,N,07539.68996300,W,2,08,0.9,-1.415,M,-36.497,M,7.4,0131*54
$GPHDT,305.134,T*35
$GPVTG,18.40,T,29.51,M,0.15,N,0.28,K,D*2A
$HCHDM,194.06,M*13
$PASHR,192728.00,304.62,T,-0.63,-4.18,0.03,0.560,0.560,0.120,1*31
$GPVTG,332.93,T,344.03,M,0.12,N,0.22,K,D*2D
$GPGGA,192729.40,3552.52546498,N,07539.68996599,W,2,08,0.9,-1.404,M,-36.497,M,7.4,0131*5F
$GPHDT,306.052,T*37
$PASHR,192729.00,305.65,T,-0.94,-4.17,0.04,0.529,0.529,0.120,1*36
$HCHDM,188.80,M*10
$GPHDT,307.433,T*35
$GPGGA,192730.30,3552.52543786,N,07539.68998095,W,2,08,0.9,-1.407,M,-36.497,M,7.3,0131*5A
$GPVTG,216.57,T,227.68,M,0.14,N,0.26,K,D*29
$PASHR,192730.00,306.75,T,-1.98,-4.05,0.04,0.556,0.556,0.120,1*32
$HCHDM,180.49,M*1D
$GPHDT,309.715,T*3C
$GPGGA,192731.30,3552.52528486,N,07539.69001196,W,2,08,0.9,-1.415,M,-36.497,M,4.3,0131*5F
$GPVTG,194.72,T,205.82,M,0.59,N,1.09,K,D*26
$HCHDM,174.93,M*11
$PASHR,192731.00,308.82,T,-2.54,-4.27,0.03,0.754,0.754,0.120,1*31
$GPVTG,200.88,T,211.99,M,0.85,N,1.57,K,D*28
$GPGGA,192732.20,3552.52507201,N,07539.69007829,W,2,08,0.9,-1.379,M,-36.497,M,5.2,0131*5F
$GPHDT,313.492,T*3B
$PASHR,192732.00,312.30,T,-1.70,-4.52,0.05,0.778,0.778,0.120,1*31
$HCHDM,174.29,M*10
$GPHDT,317.406,T*32
$GPGGA,192733.20,3552.52480396,N,07539.69012844,W,2,08,0.9,-1.351,M,-36.497,M,6.2,0131*59
$GPVTG,180.92,T,192.02,M,1.02,N,1.88,K,D*2E
$HCHDM,176.60,M*1F
$PASHR,192733.00,316.28,T,-1.44,-3.89,0.08,0.691,0.691,0.120,1*36
$GPVTG,175.29,T,186.40,M,1.23,N,2.28,K,D*2D
$GPGGA,192734.20,3552.52445742,N,07539.69011092,W,2,08,0.9,-1.365,M,-36.497,M,7.2,0131*5C
$GPHDT,320.490,T*39
$PASHR,192734.00,319.86,T,-1.64,-3.78,0.07,0.703,0.703,0.120,1*39
$HCHDM,177.74,M*1B
$GPVTG,175.77,T,186.88,M,1.50,N,2.77,K,D*2C
$GPHDT,322.941,T*3A
$GPGGA,192735.10,3552.52407871,N,07539.69006951,W,2,08,0.9,-1.378,M,-36.497,M,7.1,0131*58
$PASHR,192735.00,322.56,T,-1.61,-4.01,0.05,0.710,0.710,0.120,1*33
$HCHDM,177.07,M*1F
$GPHDT,323.998,T*3F
$GPVTG,168.45,T,179.55,M,1.72,N,3.18,K,D*29
$GPGGA,192736.10,3552.52360354,N,07539.68997512,W,2,08,0.9,-1.376,M,-36.497,M,7.1,0131*54
$HCHDM,176.78,M*16
$GPVTG,168.83,T,179.93,M,1.89,N,3.50,K,D*21
$GPGGA,192737.00,3552.52313615,N,07539.68984435,W,2,08,0.9,-1.383,M,-36.497,M,4.0,0131*5E
$GPHDT,324.034,T*37
$PASHR,192737.00,324.07,T,-1.46,-3.92,0.04,0.685,0.685,0.120,1*3A
$HCHDM,176.10,M*18
$GPVTG,166.88,T,177.98,M,2.11,N,3.91,K,D*2E
$GPGGA,192738.00,3552.52255992,N,07539.68969018,W,2,08,0.9,-1.383,M,-36.497,M,5.0,0131*5B
$GPHDT,323.133,T*36
$PASHR,192738.00,323.25,T,-1.49,-4.12,0.04,0.676,0.676,0.120,1*32
$HCHDM,175.09,M*13
$GPGGA,192739.00,3552.52193403,N,07539.68950925,W,2,08,0.9,-1.376,M,-36.497,M,6.0,0131*52
$GPVTG,164.24,T,175.35,M,2.31,N,4.28,K,D*28
$GPHDT,321.816,T*3A
$PASHR,192738.00,323.25,T,-1.49,-4.12,0.04,0.676,0.676,0.120,1*32
$HCHDM,173.80,M*14
$GPHDT,320.197,T*3B
$GPGGA,192740.00,3552.52126424,N,07539.68932701,W,2,08,0.9,-1.374,M,-36.497,M,7.0,0131*58
$GPVTG,167.57,T,178.67,M,2.47,N,4.57,K,D*2C
$HCHDM,172.49,M*10
$PASHR,192739.00,321.82,T,-1.40,-4.04,0.04,0.663,0.663,0.120,1*32
$GPVTG,171.60,T,182.71,M,2.63,N,4.87,K,D*26
$GPGGA,192740.90,3552.52061703,N,07539.68917842,W,2,08,0.9,-1.366,M,-36.497,M,6.9,0131*51
$GPHDT,319.176,T*3E
$PASHR,192740.00,320.20,T,-1.41,-4.32,0.04,0.657,0.657,0.120,1*31
$HCHDM,171.91,M*16
$GPGGA,192758.10,3552.50470798,N,07539.68543072,W,2,08,0.9,-1.336,M,-36.498,M,7.1,0131*51
$GPHDT,333.389,T*34
$GPVTG,167.55,T,178.65,M,3.44,N,6.38,K,D*25
$PASHR,192758.00,333.44,T,2.72,-4.22,0.07,0.825,0.517,0.690,1*14
$HCHDM,171.74,M*1D
$GPHDT,333.391,T*3D
$GPGGA,192759.10,3552.50378693,N,07539.68514579,W,2,08,0.9,-1.334,M,-36.498,M,7.1,0131*5B
$GPVTG,165.42,T,176.52,M,3.42,N,6.32,K,D*27
$PASHR,192759.00,333.41,T,2.59,-4.21,0.07,0.734,0.516,0.654,1*1C
$HCHDM,171.88,M*1E
$GPGGA,192800.00,3552.50295911,N,07539.68489236,W,2,08,0.9,-1.324,M,-36.498,M,7.0,0131*57
$GPVTG,167.57,T,178.67,M,3.40,N,6.29,K,D*21
$GPHDT,333.183,T*3C
$PASHR,192800.00,333.33,T,2.92,-4.31,0.07,0.662,0.515,0.597,1*11
$HCHDM,172.06,M*1B
$GPHDT,333.037,T*32
$GPGGA,192801.00,3552.50204237,N,07539.68461151,W,2,08,0.9,-1.318,M,-36.498,M,4.0,0131*59
$GPVTG,164.90,T,176.00,M,3.40,N,6.29,K,D*26
$PASHR,192800.00,333.33,T,2.92,-4.31,0.07,0.662,0.515,0.597,1*11
$HCHDM,172.37,M*19
$GPHDT,332.988,T*3E
$GPGGA,192802.00,3552.50113051,N,07539.68432690,W,2,08,0.9,-1.302,M,-36.498,M,5.0,0131*5B
$GPVTG,165.33,T,176.43,M,3.38,N,6.26,K,D*29
$PASHR,192801.00,333.04,T,3.03,-4.18,0.08,0.590,0.505,0.539,1*12
$HCHDM,173.32,M*1D
$GPVTG,167.55,T,178.66,M,3.37,N,6.25,K,D*2E
$GPGGA,192802.90,3552.50030976,N,07539.68407512,W,2,08,0.9,-1.292,M,-36.498,M,5.9,0131*50
$GPHDT,332.919,T*36
$HCHDM,174.43,M*1C
$PASHR,192802.00,332.99,T,3.14,-4.31,0.09,0.537,0.511,0.495,1*17
$GPHDT,332.728,T*3A
$GPGGA,192803.90,3552.49939548,N,07539.68379759,W,2,08,0.9,-1.294,M,-36.498,M,6.9,0131*5E
$GPVTG,165.58,T,176.68,M,3.38,N,6.26,K,D*2D
$HCHDM,174.78,M*14
$PASHR,192803.00,332.92,T,2.98,-4.39,0.09,0.504,0.510,0.467,1*1C
$GPVTG,166.13,T,177.23,M,3.38,N,6.25,K,D*2C
$GPHDT,332.212,T*36
$GPGGA,192804.80,3552.49857420,N,07539.68355053,W,2,08,0.9,-1.301,M,-36.498,M,6.8,0131*51
$HCHDM,175.67,M*1B
$PASHR,192804.00,332.62,T,3.24,-4.31,0.09,0.485,0.512,0.451,1*15
$GPHDT,331.687,T*3D
$GPGGA,192805.80,3552.49765711,N,07539.68328140,W,2,08,0.9,-1.328,M,-36.498,M,6.8,0131*5D
$GPVTG,165.95,T,177.06,M,3.36,N,6.23,K,D*2E
$PASHR,192805.00,332.24,T,3.01,-4.41,0.08,0.482,0.505,0.450,1*17
$HCHDM,177.20,M*1A
$GPGGA,192806.80,3552.49674256,N,07539.68302169,W,2,08,0.9,-1.339,M,-36.498,M,3.8,0131*5F
$GPVTG,168.97,T,180.08,M,3.35,N,6.21,K,D*26
$GPHDT,331.099,T*34
$PASHR,192806.00,331.49,T,3.15,-4.33,0.05,0.497,0.507,0.465,1*11
$HCHDM,178.90,M*1E
$GPVTG,169.32,T,180.43,M,3.47,N,6.42,K,D*27
$GPGGA,192807.70,3552.49589031,N,07539.68280297,W,2,08,0.9,-1.352,M,-36.498,M,4.7,0131*5F
$GPHDT,331.015,T*30
$PASHR,192807.00,331.03,T,3.77,-4.39,0.03,0.520,0.514,0.481,1*13
$HCHDM,179.79,M*18
$GPGGA,192808.70,3552.49491138,N,07539.68256085,W,2,08,0.9,-1.368,M,-36.498,M,5.7,0131*52
$GPVTG,168.91,T,180.02,M,3.56,N,6.59,K,D*20
$GPHDT,330.706,T*34
$HCHDM,180.49,M*1D
$PASHR,192808.00,330.91,T,3.29,-4.30,0.02,0.557,0.579,0.523,1*17
$GPVTG,168.45,T,179.56,M,3.59,N,6.65,K,D*2E
$GPHDT,330.772,T*37
$GPGGA,192809.60,3552.49402506,N,07539.68235276,W,2,08,0.9,-1.371,M,-36.498,M,6.6,0131*50
$HCHDM,182.40,M*16
$PASHR,192809.00,330.74,T,3.29,-4.40,-0.00,0.581,0.570,0.551,1*32
$GPHDT,330.513,T*32
$GPVTG,169.57,T,180.67,M,3.64,N,6.73,K,D*21
$GPGGA,192810.60,3552.49302853,N,07539.68212003,W,2,08,0.9,-1.378,M,-36.498,M,6.6,0131*5E
$HCHDM,184.69,M*1B
$PASHR,192810.00,330.67,T,3.04,-4.25,-0.00,0.595,0.541,0.563,1*32
$GPVTG,169.81,T,180.91,M,3.66,N,6.78,K,D*2A
$GPGGA,192811.50,3552.49213000,N,07539.68190260,W,2,08,0.9,-1.381,M,-36.498,M,7.5,0131*59
$GPHDT,329.959,T*38
$PASHR,192811.00,330.47,T,3.15,-4.14,-0.01,0.628,0.534,0.591,1*38
$HCHDM,187.08,M*1F
$GPVTG,181.89,T,192.99,M,3.84,N,7.11,K,D*2D
$GPHDT,319.551,T*3F
$GPGGA,192828.80,3552.47402742,N,07539.68033711,W,2,08,0.9,-1.303,M,-36.498,M,6.8,0131*5A
$PASHR,192811.00,330.47,T,3.15,-4.14,-0.01,0.628,0.534,0.591,1*38
$HCHDM,189.14,M*1C
$GPHDT,319.337,T*39
$GPVTG,185.98,T,197.08,M,3.82,N,7.08,K,D*2A
$GPGGA,192829.70,3552.47307032,N,07539.68041638,W,2,08,0.9,-1.307,M,-36.498,M,6.7,0131*52
$PASHR,192829.00,319.63,T,3.24,-4.34,0.03,0.973,0.507,0.768,1*14
$HCHDM,190.85,M*1C
$GPHDT,318.828,T*3D
$GPGGA,192830.70,3552.47200230,N,07539.68052701,W,2,08,0.9,-1.307,M,-36.498,M,3.7,0131*50
$GPVTG,182.60,T,193.71,M,3.83,N,7.09,K,D*20
$HCHDM,192.47,M*10
$PASHR,192830.00,319.21,T,3.49,-4.51,0.03,1.027,0.504,0.812,1*1A
$GPVTG,187.17,T,198.27,M,3.85,N,7.14,K,D*27
$GPHDT,318.015,T*3B
$GPGGA,192831.60,3552.47103685,N,07539.68063835,W,2,08,0.9,-1.306,M,-36.498,M,4.6,0131*57
$PASHR,192831.00,318.48,T,3.45,-4.41,0.04,0.965,0.508,0.765,1*12
$HCHDM,194.02,M*17
$GPGGA,192832.60,3552.46996694,N,07539.68077179,W,2,08,0.9,-1.303,M,-36.498,M,5.6,0131*51
$GPVTG,186.11,T,197.22,M,3.84,N,7.12,K,D*2D
$GPHDT,317.742,T*31
$PASHR,192832.00,318.07,T,3.53,-4.40,0.03,0.982,0.508,0.797,1*1F
$HCHDM,195.62,M*10
$GPHDT,317.169,T*3E
$GPVTG,187.62,T,198.73,M,3.85,N,7.13,K,D*23
$GPGGA,192833.60,3552.46890105,N,07539.68092916,W,2,08,0.9,-1.297,M,-36.498,M,6.6,0131*5D
$PASHR,192833.00,317.65,T,3.60,-4.50,0.03,1.101,0.511,0.906,1*18
$HCHDM,197.33,M*16
$GPVTG,187.20,T,198.31,M,3.85,N,7.13,K,D*23
$GPGGA,192834.50,3552.46794882,N,07539.68108219,W,2,08,0.9,-1.302,M,-36.498,M,7.5,0131*5D
$GPHDT,316.739,T*3C
$PASHR,192834.00,316.93,T,3.43,-4.41,0.04,1.185,0.504,0.984,1*13
$HCHDM,199.35,M*1E
$GPGGA,192835.50,3552.46689345,N,07539.68126645,W,2,08,0.9,-1.289,M,-36.498,M,7.5,0131*52
$GPVTG,187.68,T,198.78,M,3.85,N,7.13,K,D*22
$GPHDT,316.261,T*34
$HCHDM,201.47,M*19
$PASHR,192835.00,316.49,T,3.55,-4.42,0.05,1.325,0.505,1.106,1*1A
$GPHDT,315.747,T*36
$GPVTG,190.12,T,201.22,M,3.86,N,7.14,K,D*21
$GPGGA,192836.40,3552.46594129,N,07539.68144706,W,2,08,0.9,-1.302,M,-36.498,M,7.4,0131*56
$HCHDM,203.21,M*1B
$PASHR,192836.00,315.96,T,3.58,-4.58,0.04,1.470,0.509,1.230,1*12
$GPHDT,315.576,T*36
$GPGGA,192837.40,3552.46488313,N,07539.68166118,W,2,08,0.9,-1.316,M,-36.498,M,4.4,0131*5F
$GPVTG,191.00,T,202.11,M,3.85,N,7.13,K,D*24
$PASHR,192837.00,315.50,T,3.60,-4.52,0.02,1.598,0.510,1.339,1*19
$HCHDM,204.32,M*1E
$GPHDT,315.331,T*33
$GPVTG,192.60,T,203.70,M,3.85,N,7.12,K,D*26
$GPGGA,192838.40,3552.46383026,N,07539.68189884,W,2,08,0.9,-1.327,M,-36.498,M,5.4,0131*57
$PASHR,192838.00,315.39,T,4.00,-4.60,0.01,1.642,0.509,1.378,1*13
$HCHDM,204.94,M*12
$GPHDT,314.669,T*3A
$GPVTG,192.63,T,203.73,M,3.85,N,7.14,K,D*20
$GPGGA,192839.30,3552.46288447,N,07539.68213504,W,2,08,0.9,-1.326,M,-36.498,M,6.3,0131*58
$HCHDM,205.65,M*1D
$PASHR,192839.00,315.01,T,4.11,-4.63,0.00,1.535,0.506,1.283,1*12
$GPHDT,314.244,T*31
$GPGGA,192840.30,3552.46183092,N,07539.68241599,W,2,08,0.9,-1.361,M,-36.498,M,7.3,0131*53
$GPVTG,193.45,T,204.55,M,3.86,N,7.14,K,D*25
$PASHR,192840.00,314.27,T,3.94,-4.57,-0.02,1.402,0.512,1.168,1*3D
$HCHDM,207.31,M*1E
$GPVTG,193.39,T,204.49,M,3.87,N,7.17,K,D*21
$GPHDT,313.508,T*39
$GPGGA,192841.20,3552.46088401,N,07539.68268919,W,2,08,0.9,-1.369,M,-36.498,M,7.2,0131*51
$HCHDM,209.06,M*14
$PASHR,192841.00,313.82,T,3.96,-4.55,-0.03,1.371,0.516,1.138,1*37
$GPGGA,192841.70,3552.46035998,N,07539.68285062,W,2,08,0.9,-1.374,M,-36.498,M,6.7,0131*51
$GPHDT,313.462,T*34
$GPVTG,194.90,T,206.01,M,3.88,N,7.18,K,D*2B
$HCHDM,209.35,M*14
$PASHR,192842.00,313.33,T,3.95,-4.53,-0.05,1.339,0.506,1.111,1*3B
$GPVTG,195.44,T,206.54,M,3.90,N,7.22,K,D*23
$GPHDT,312.993,T*36
$GPGGA,192842.70,3552.45931244,N,07539.68319394,W,2,08,0.9,-1.391,M,-36.498,M,3.7,0131*56
$PASHR,192842.00,313.33,T,3.95,-4.53,-0.05,1.339,0.506,1.111,1*3B
$HCHDM,209.77,M*12
$GPHDT,311.509,T*3A
$GPGGA,192859.90,3552.44141244,N,07539.69101903,W,2,08,0.9,-1.490,M,-36.498,M,6.9,0131*5F
$GPVTG,203.94,T,215.05,M,3.97,N,7.34,K,D*24
$HCHDM,210.64,M*18
$PASHR,192900.00,311.40,T,5.88,-4.64,-0.10,2.961,0.505,1.881,1*37
$GPVTG,204.74,T,215.85,M,3.97,N,7.35,K,D*24
$GPGGA,192900.80,3552.44049565,N,07539.69150487,W,2,08,0.9,-1.499,M,-36.498,M,3.8,0131*56
$GPHDT,311.415,T*36
$HCHDM,211.23,M*1A
$PASHR,192901.00,311.43,T,5.68,-4.50,-0.10,3.056,0.510,1.942,1*3A
$GPGGA,192901.80,3552.43948752,N,07539.69206386,W,2,08,0.9,-1.475,M,-36.498,M,4.8,0131*5D
$GPVTG,202.26,T,213.36,M,3.99,N,7.39,K,D*29
$GPHDT,311.343,T*32
$HCHDM,211.34,M*1C
$PASHR,192902.00,311.37,T,5.61,-4.38,-0.07,3.162,0.503,2.010,1*32
$GPVTG,205.59,T,216.69,M,3.99,N,7.40,K,D*27
$GPHDT,311.276,T*35
$GPGGA,192902.80,3552.43847521,N,07539.69262772,W,2,08,0.9,-1.466,M,-36.498,M,5.8,0131*58
$HCHDM,210.53,M*1C
$PASHR,192903.00,311.35,T,5.62,-4.40,-0.06,3.249,0.507,2.066,1*33
$GPHDT,311.428,T*38
$GPGGA,192903.70,3552.43756406,N,07539.69314581,W,2,08,0.9,-1.461,M,-36.498,M,6.7,0131*58
$GPVTG,206.62,T,217.72,M,4.01,N,7.43,K,D*22
$HCHDM,210.20,M*18
$PASHR,192904.00,311.38,T,5.52,-4.24,-0.04,3.275,0.517,2.083,1*3F
$GPHDT,311.411,T*32
$GPVTG,204.69,T,215.79,M,4.03,N,7.46,K,D*25
$GPGGA,192904.70,3552.43654784,N,07539.69371856,W,2,08,0.9,-1.445,M,-36.498,M,6.7,0131*57
$HCHDM,210.30,M*19
$PASHR,192905.00,311.42,T,5.68,-4.19,-0.03,3.254,0.510,2.071,1*3A
$GPGGA,192905.60,3552.43562801,N,07539.69422759,W,2,08,0.9,-1.439,M,-36.498,M,6.6,0131*58
$GPHDT,311.645,T*31
$GPVTG,203.36,T,214.47,M,4.04,N,7.48,K,D*2D
$PASHR,192906.00,311.70,T,5.50,-4.28,-0.01,3.185,0.527,2.027,1*3B
$HCHDM,210.52,M*1D
$GPHDT,311.631,T*32
$GPGGA,192906.60,3552.43459533,N,07539.69478213,W,2,08,0.9,-1.405,M,-36.498,M,3.6,0131*50
$GPVTG,199.97,T,211.07,M,4.06,N,7.52,K,D*2E
$HCHDM,211.18,M*12
$PASHR,192907.00,311.79,T,5.40,-4.17,0.01,3.048,0.531,1.941,1*1E
$GPHDT,311.923,T*3E
$GPVTG,202.62,T,213.73,M,4.07,N,7.54,K,D*23
$GPGGA,192907.60,3552.43355007,N,07539.69531647,W,2,08,0.9,-1.405,M,-36.498,M,4.6,0131*56
$PASHR,192908.00,311.74,T,5.68,-4.38,0.01,2.965,0.516,1.889,1*1C
$HCHDM,212.11,M*18
$GPHDT,311.628,T*3A
$GPGGA,192908.50,3552.43259969,N,07539.69578975,W,2,08,0.9,-1.381,M,-36.498,M,5.5,0131*5C
$GPVTG,203.24,T,214.35,M,4.09,N,7.58,K,D*27
$PASHR,192908.00,311.74,T,5.68,-4.38,0.01,2.965,0.516,1.889,1*1C
$HCHDM,212.59,M*14
$GPHDT,311.736,T*34
$GPVTG,201.50,T,212.60,M,4.10,N,7.59,K,D*29
$GPGGA,192909.50,3552.43154309,N,07539.69632238,W,2,08,0.9,-1.372,M,-36.498,M,6.5,0131*5F
$PASHR,192909.00,311.68,T,5.51,-4.46,0.04,2.932,0.507,1.869,1*1A
$HCHDM,212.54,M*19
$GPHDT,311.786,T*3F
$GPVTG,201.63,T,212.74,M,4.10,N,7.58,K,D*2D
$GPGGA,192910.40,3552.43058879,N,07539.69679641,W,2,08,0.9,-1.391,M,-36.498,M,7.4,0131*5F
$PASHR,192910.00,311.72,T,5.49,-4.32,0.03,2.896,0.507,1.846,1*16
$HCHDM,212.25,M*1F
$GPVTG,199.75,T,210.85,M,4.11,N,7.62,K,D*2C
$GPHDT,311.617,T*36
$GPGGA,192911.40,3552.42952440,N,07539.69731973,W,2,08,0.9,-1.396,M,-36.498,M,7.4,0131*5E
$HCHDM,211.87,M*14
$PASHR,192911.00,311.70,T,5.52,-4.44,0.02,2.857,0.515,1.822,1*13
$GPVTG,203.64,T,214.75,M,4.11,N,7.62,K,D*27
$GPGGA,192912.40,3552.42846159,N,07539.69785315,W,2,08,0.9,-1.410,M,-36.498,M,7.4,0131*58
$GPHDT,311.658,T*3D
$HCHDM,212.02,M*1A
$PASHR,192912.00,311.67,T,5.46,-4.37,-0.00,2.880,0.513,1.836,1*31
$GPHDT,311.438,T*39
$GPGGA,192913.30,3552.42750045,N,07539.69833563,W,2,08,0.9,-1.416,M,-36.498,M,4.3,0131*5D
$GPVTG,201.79,T,212.89,M,4.14,N,7.66,K,D*2D
$HCHDM,212.11,M*18
$PASHR,192913.00,311.44,T,5.53,-4.51,-0.01,2.938,0.520,1.874,1*30
$GPGGA,192930.50,3552.40999086,N,07539.70826599,W,2,08,0.9,-0.657,M,-36.498,M,7.5,0131*56
$GPHDT,311.605,T*35
$GPVTG,202.14,T,213.24,M,3.88,N,7.19,K,D*29
$PASHR,192930.00,311.46,T,4.76,-4.29,0.53,3.419,0.536,2.327,1*16
$HCHDM,212.02,M*1A
$GPGGA,192931.50,3552.40901673,N,07539.70879530,W,2,08,0.9,-0.647,M,-36.498,M,4.5,0131*51
$GPVTG,204.73,T,215.84,M,3.84,N,7.11,K,D*26
$GPHDT,311.640,T*34
$PASHR,192931.00,311.73,T,4.83,-4.25,0.52,3.322,0.526,2.238,1*17
$HCHDM,211.64,M*19
$GPHDT,311.663,T*35
$GPVTG,202.50,T,213.60,M,3.81,N,7.06,K,D*2E
$GPGGA,192932.40,3552.40813998,N,07539.70926021,W,2,08,0.9,-0.641,M,-36.498,M,5.4,0131*53
$GPVTG,201.67,T,212.78,M,3.80,N,7.03,K,D*25
$GPGGA,192933.40,3552.40717164,N,07539.70977294,W,2,08,0.9,-0.640,M,-36.498,M,6.4,0131*58
$GPHDT,311.778,T*3E
$PASHR,192933.00,311.83,T,4.80,-4.27,0.48,3.023,0.540,1.999,1*11
$HCHDM,211.19,M*13
$GPVTG,204.77,T,215.87,M,3.77,N,6.99,K,D*2C
$GPGGA,192934.40,3552.40620679,N,07539.71027855,W,2,08,0.9,-0.641,M,-36.498,M,7.4,0131*5B
$GPHDT,311.859,T*32
$HCHDM,211.67,M*1A
$PASHR,192934.00,311.70,T,4.62,-4.08,0.45,2.900,0.521,1.901,1*19
$GPGGA,192935.30,3552.40533454,N,07539.71072762,W,2,08,0.9,-0.652,M,-36.498,M,7.3,0131*5F
$GPHDT,311.842,T*38
$GPVTG,201.91,T,213.01,M,3.77,N,6.99,K,D*29
$HCHDM,211.94,M*16
$PASHR,192935.00,311.68,T,4.78,-4.25,0.43,2.807,0.512,1.827,1*10
$GPHDT,311.607,T*37
$GPGGA,192936.30,3552.40436583,N,07539.71123093,W,2,08,0.9,-0.627,M,-36.498,M,7.3,0131*5D
$GPVTG,202.03,T,213.13,M,3.79,N,7.01,K,D*2C
$HCHDM,212.05,M*1D
$PASHR,192936.00,311.81,T,4.74,-4.30,0.42,2.750,0.510,1.781,1*11
$GPVTG,204.30,T,215.41,M,3.78,N,7.01,K,D*2A
$GPHDT,311.617,T*36
$GPGGA,192937.20,3552.40349883,N,07539.71169055,W,2,08,0.9,-0.635,M,-36.498,M,4.2,0131*5A
$PASHR,192937.00,311.68,T,4.70,-4.26,0.40,2.735,0.507,1.764,1*18
$HCHDM,211.98,M*1A
$GPVTG,204.23,T,215.34,M,3.77,N,6.98,K,D*24
$GPHDT,311.461,T*35
$PASHR,192938.00,311.73,T,4.82,-4.29,0.34,2.773,0.521,1.782,1*12
$HCHDM,212.00,M*18
$GPHDT,311.543,T*34
$GPGGA,192939.20,3552.40158106,N,07539.71274202,W,2,08,0.9,-0.676,M,-36.498,M,6.2,0131*58
$GPVTG,205.50,T,216.60,M,3.78,N,7.01,K,D*2D
$GPHDT,311.548,T*3F
$GPGGA,192940.10,3552.40070838,N,07539.71321819,W,2,08,0.9,-0.673,M,-36.498,M,7.1,0131*5C
$GPVTG,202.68,T,213.79,M,3.81,N,7.06,K,D*2D
$HCHDM,212.52,M*1F
$PASHR,192940.00,311.50,T,4.67,-4.22,0.32,2.832,0.525,1.814,1*14
$GPVTG,204.37,T,215.48,M,3.82,N,7.08,K,D*28
$GPGGA,192941.10,3552.39973884,N,07539.71375669,W,2,08,0.9,-0.667,M,-36.498,M,7.1,0131*53
$GPHDT,311.487,T*3D
$PASHR,192941.00,311.46,T,4.60,-4.31,0.31,2.843,0.526,1.820,1*16
$HCHDM,210.49,M*17
$GPVTG,201.76,T,212.87,M,3.87,N,7.17,K,D*27
$GPGGA,192942.00,3552.39885747,N,07539.71424761,W,2,08,0.9,-0.662,M,-36.498,M,7.0,0131*57
$GPHDT,311.548,T*3F
$PASHR,192942.00,311.52,T,4.66,-4.28,0.29,2.869,0.535,1.836,1*1A
$HCHDM,210.17,M*1C
$GPHDT,311.533,T*33
$GPGGA,192943.00,3552.39786942,N,07539.71479376,W,2,08,0.9,-0.655,M,-36.498,M,4.0,0131*5C
$GPVTG,202.54,T,213.65,M,3.89,N,7.20,K,D*23
$PASHR,192943.00,311.47,T,4.74,-4.31,0.29,2.878,0.537,1.842,1*15
$HCHDM,215.75,M*1D
$GPGGA,192944.00,3552.39687386,N,07539.71534675,W,2,08,0.9,-0.641,M,-36.498,M,5.0,0131*53
$GPVTG,204.56,T,215.66,M,3.92,N,7.27,K,D*2F
$GPHDT,311.616,T*37
$PASHR,192943.00,311.47,T,4.74,-4.31,0.29,2.878,0.537,1.842,1*15
$HCHDM,221.53,M*1E
$GPHDT,310.421,T*30
$GPVTG,213.13,T,224.24,M,3.84,N,7.12,K,D*2D
$GPGGA,193001.20,3552.37975195,N,07539.72599975,W,2,08,0.9,-0.538,M,-36.498,M,4.2,0131*51
$PASHR,193001.00,310.44,T,5.09,-3.93,0.19,2.526,0.526,1.663,1*15
$HCHDM,222.87,M*14
$GPHDT,310.531,T*30
$GPGGA,193002.10,3552.37896286,N,07539.72667273,W,2,08,0.9,-0.532,M,-36.498,M,5.1,0131*5B
$GPVTG,213.10,T,224.21,M,3.84,N,7.11,K,D*28
$PASHR,193002.00,310.41,T,5.04,-3.92,0.18,2.464,0.515,1.625,1*1B
$HCHDM,222.08,M*13
$GPGGA,193003.10,3552.37807962,N,07539.72741703,W,2,08,0.9,-0.537,M,-36.498,M,6.1,0131*52
$GPVTG,211.84,T,222.95,M,3.86,N,7.14,K,D*29
$GPHDT,310.465,T*30
$HCHDM,223.28,M*10
$PASHR,193003.00,310.33,T,5.06,-4.12,0.16,2.432,0.508,1.605,1*11
$GPGGA,193004.10,3552.37719714,N,07539.72817823,W,2,08,0.9,-0.542,M,-36.498,M,7.1,0131*58
$GPHDT,309.735,T*3E
$GPVTG,216.41,T,227.52,M,3.87,N,7.18,K,D*24
$HCHDM,224.56,M*1E
$PASHR,193004.00,309.62,T,4.42,-4.21,0.15,2.387,0.521,1.561,1*1B
$GPHDT,310.095,T*3B
$GPVTG,215.27,T,226.38,M,3.90,N,7.22,K,D*25
$GPGGA,193005.00,3552.37641151,N,07539.72888910,W,2,08,0.9,-0.547,M,-36.498,M,7.0,0131*50
$HCHDM,224.67,M*1C
$PASHR,193005.00,310.01,T,3.62,-4.42,0.14,2.176,0.524,1.416,1*1E
$GPVTG,215.85,T,226.96,M,3.92,N,7.26,K,D*2F
$GPGGA,193006.00,3552.37554026,N,07539.72969593,W,2,08,0.9,-0.538,M,-36.498,M,7.0,0131*54
$GPHDT,309.950,T*33
$PASHR,193005.00,310.01,T,3.62,-4.42,0.14,2.176,0.524,1.416,1*1E
$HCHDM,224.97,M*13
$GPHDT,310.196,T*39
$GPVTG,217.81,T,228.92,M,3.94,N,7.29,K,D*2A
$GPGGA,193007.00,3552.37466762,N,07539.73051018,W,2,08,0.9,-0.552,M,-36.498,M,4.0,0131*58
$HCHDM,226.27,M*1A
$PASHR,193006.00,309.95,T,3.50,-4.12,0.14,1.853,0.524,1.222,1*10
$GPHDT,310.085,T*3A
$GPGGA,193007.90,3552.37388195,N,07539.73125124,W,2,08,0.9,-0.554,M,-36.498,M,4.9,0131*5B
$GPVTG,216.44,T,227.55,M,3.95,N,7.32,K,D*2D
$HCHDM,226.66,M*1F
$PASHR,193007.00,310.20,T,3.58,-4.17,0.12,1.676,0.525,1.117,1*11
$GPHDT,310.152,T*31
$GPVTG,214.93,T,226.04,M,3.97,N,7.36,K,D*26
$GPGGA,193008.90,3552.37299792,N,07539.73206613,W,2,08,0.9,-0.560,M,-36.498,M,5.9,0131*53
$GPHDT,310.191,T*3E
$GPGGA,193009.80,3552.37219808,N,07539.73279870,W,2,08,0.9,-0.558,M,-36.498,M,6.8,0131*5D
$GPVTG,216.52,T,227.63,M,3.98,N,7.38,K,D*28
$PASHR,193009.00,310.30,T,3.45,-3.98,0.10,1.494,0.517,1.008,1*10
$HCHDM,223.92,M*11
$GPVTG,217.29,T,228.39,M,4.00,N,7.40,K,D*2C
$GPGGA,193010.80,3552.37131477,N,07539.73362652,W,2,08,0.9,-0.552,M,-36.498,M,6.8,0131*57
$GPHDT,309.969,T*39
$PASHR,193010.00,310.08,T,3.45,-4.16,0.10,1.482,0.520,1.003,1*1A
$HCHDM,226.91,M*17
$GPHDT,310.065,T*34
$GPGGA,193011.80,3552.37044091,N,07539.73446363,W,2,08,0.9,-0.548,M,-36.498,M,6.8,0131*54
$GPVTG,216.99,T,228.10,M,3.99,N,7.40,K,D*2A
$HCHDM,229.95,M*1C
$PASHR,193011.00,310.03,T,3.71,-4.22,0.10,1.427,0.512,0.963,1*10
$GPHDT,310.088,T*37
$GPVTG,220.37,T,231.48,M,3.98,N,7.38,K,D*20
$GPGGA,193012.70,3552.36966293,N,07539.73522848,W,2,08,0.9,-0.555,M,-36.498,M,3.7,0131*57
$HCHDM,230.87,M*17
$PASHR,193012.00,310.20,T,3.86,-4.35,0.09,1.499,0.511,1.005,1*1A
$GPHDT,310.001,T*36
$GPVTG,219.10,T,230.20,M,3.96,N,7.32,K,D*24
$GPGGA,193013.70,3552.36880825,N,07539.73608132,W,2,08,0.9,-0.552,M,-36.498,M,4.7,0131*57
$PASHR,193013.00,310.01,T,4.00,-4.28,0.09,1.608,0.506,1.071,1*12
$HCHDM,229.21,M*13
$GPVTG,218.67,T,229.77,M,3.93,N,7.28,K,D*21
$GPGGA,193014.70,3552.36795593,N,07539.73692319,W,2,08,0.9,-0.562,M,-36.498,M,5.7,0131*51
$GPHDT,309.780,T*30
$PASHR,193014.00,310.00,T,4.06,-4.09,0.08,1.680,0.505,1.119,1*1C
$HCHDM,227.49,M*13
$GPVTG,220.60,T,231.71,M,3.73,N,6.91,K,D*2F
$GPHDT,310.038,T*3C
$GPGGA,193031.90,3552.35368973,N,07539.75116949,W,2,08,0.9,-0.564,M,-36.498,M,4.9,0131*54
$HCHDM,227.34,M*19
$PASHR,193015.00,309.86,T,4.13,-4.03,0.07,1.640,0.521,1.089,1*18
$GPHDT,310.111,T*36
$GPGGA,193032.80,3552.35297905,N,07539.75190362,W,2,08,0.9,-0.572,M,-36.498,M,5.8,0131*5C
$GPVTG,221.58,T,232.68,M,3.71,N,6.86,K,D*2A
$HCHDM,227.86,M*10
$PASHR,193032.00,310.10,T,5.96,-4.32,0.01,1.989,0.519,1.197,1*1D
$GPGGA,193033.80,3552.35219658,N,07539.75270273,W,2,08,0.9,-0.591,M,-36.498,M,6.8,0131*5E
$GPVTG,218.39,T,229.49,M,3.66,N,6.78,K,D*29
$GPHDT,309.596,T*35
$HCHDM,226.77,M*1F
$PASHR,193033.00,310.12,T,6.04,-4.28,-0.01,2.013,0.529,1.207,1*30
$GPGGA,193034.80,3552.35140815,N,07539.75347801,W,2,08,0.9,-0.591,M,-36.498,M,6.8,0131*5B
$GPHDT,309.669,T*36
$GPVTG,217.62,T,228.73,M,3.65,N,6.75,K,D*2E
$PASHR,193034.00,309.61,T,5.69,-4.07,-0.02,2.085,0.533,1.235,1*38
$HCHDM,224.34,M*1A
$GPHDT,310.082,T*3D
$GPGGA,193035.70,3552.35068544,N,07539.75414685,W,2,08,0.9,-0.594,M,-36.498,M,6.7,0131*5E
$GPVTG,218.30,T,229.40,M,3.61,N,6.69,K,D*2E
$PASHR,193035.00,309.76,T,4.30,-3.96,-0.02,2.098,0.541,1.231,1*30
$HCHDM,222.68,M*15
$GPHDT,310.198,T*37
$GPGGA,193036.70,3552.34986977,N,07539.75486720,W,2,08,0.9,-0.603,M,-36.498,M,3.7,0131*54
$GPVTG,214.55,T,225.66,M,3.61,N,6.69,K,D*29
$HCHDM,222.40,M*1F
$PASHR,193036.00,310.26,T,3.75,-3.82,-0.02,1.800,0.510,1.045,1*32
$GPVTG,216.08,T,227.19,M,3.62,N,6.71,K,D*23
$GPGGA,193037.60,3552.34912280,N,07539.75549913,W,2,08,0.9,-0.608,M,-36.498,M,4.6,0131*5B
$GPHDT,310.121,T*35
$HCHDM,223.18,M*13
$PASHR,193037.00,310.08,T,3.67,-3.98,-0.03,1.687,0.508,0.976,1*36
$GPVTG,214.58,T,225.69,M,3.62,N,6.71,K,D*21
$GPGGA,193038.60,3552.34828829,N,07539.75619036,W,2,08,0.9,-0.617,M,-36.498,M,5.6,0131*52
$GPHDT,310.090,T*3E
$HCHDM,223.85,M*17
$PASHR,193038.00,310.20,T,3.68,-3.99,-0.03,1.725,0.506,0.997,1*35
$GPHDT,310.098,T*36
$GPGGA,193039.60,3552.34744867,N,07539.75687405,W,2,08,0.9,-0.629,M,-36.498,M,6.6,0131*51
$GPVTG,214.01,T,225.11,M,3.62,N,6.71,K,D*22
$HCHDM,223.68,M*14
$PASHR,193039.00,310.20,T,3.73,-4.08,-0.05,1.812,0.510,1.045,1*3C
$GPVTG,215.92,T,227.03,M,3.62,N,6.71,K,D*28
$GPGGA,193040.50,3552.34669254,N,07539.75749130,W,2,08,0.9,-0.630,M,-36.498,M,7.5,0131*52
$GPHDT,310.019,T*3F
$PASHR,193040.00,310.12,T,3.73,-4.21,-0.05,1.869,0.506,1.075,1*30
$HCHDM,223.58,M*17
$GPHDT,310.113,T*34
$GPVTG,214.18,T,225.29,M,3.62,N,6.71,K,D*21
$GPGGA,193041.50,3552.34585852,N,07539.75818648,W,2,08,0.9,-0.629,M,-36.498,M,7.5,0131*55
$PASHR,193041.00,310.23,T,3.64,-4.21,-0.05,1.852,0.514,1.062,1*38
$HCHDM,223.88,M*1A
$GPGGA,193042.40,3552.34511841,N,07539.75882370,W,2,08,0.9,-0.631,M,-36.498,M,7.4,0131*5D
$GPVTG,216.07,T,227.17,M,3.61,N,6.68,K,D*29
$GPHDT,310.153,T*30
$PASHR,193042.00,310.32,T,3.59,-4.19,-0.05,1.770,0.509,1.011,1*39
$HCHDM,224.98,M*1C
$GPVTG,214.07,T,225.18,M,3.60,N,6.66,K,D*29
$GPHDT,310.287,T*3A
$GPGGA,193043.40,3552.34430110,N,07539.75953519,W,2,08,0.9,-0.623,M,-36.498,M,4.4,0131*57
$PASHR,193043.00,310.23,T,3.75,-4.24,-0.04,1.682,0.516,0.958,1*3E
$HCHDM,227.40,M*1A
$GPHDT,310.173,T*32
$GPVTG,217.73,T,228.83,M,3.58,N,6.62,K,D*29
$GPGGA,193044.30,3552.34357808,N,07539.76018431,W,2,08,0.9,-0.634,M,-36.498,M,5.3,0131*5F
$HCHDM,227.56,M*1D
$PASHR,193044.00,310.25,T,3.75,-4.30,-0.04,1.630,0.513,0.925,1*3C
$GPHDT,310.183,T*3D
$GPGGA,193045.30,3552.34277333,N,07539.76089859,W,2,08,0.9,-0.637,M,-36.498,M,6.3,0131*54
$GPVTG,213.65,T,224.76,M,3.57,N,6.61,K,D*20
$HCHDM,227.18,M*17
$PASHR,193045.00,310.17,T,3.66,-4.13,-0.04,1.580,0.510,0.894,1*3F
$GPVTG,219.74,T,230.85,M,3.58,N,6.64,K,D*29
$GPHDT,309.985,T*3B
$GPGGA,193102.50,3552.32921305,N,07539.77364986,W,2,08,0.9,-0.692,M,-36.498,M,5.5,0131*53
$PASHR,193046.00,310.18,T,3.70,-4.09,-0.05,1.555,0.506,0.876,1*3D
$HCHDM,226.88,M*1F
$GPVTG,217.68,T,228.78,M,3.59,N,6.65,K,D*21
$GPGGA,193103.00,3552.32882111,N,07539.77403056,W,2,08,0.9,-0.688,M,-36.498,M,6.0,0131*57
$GPHDT,310.080,T*3F
$HCHDM,226.59,M*13
$PASHR,193103.00,310.08,T,4.11,-4.34,-0.04,2.307,0.506,1.236,1*3E
$GPGGA,193104.00,3552.32803765,N,07539.77479862,W,2,08,0.9,-0.686,M,-36.498,M,7.0,0131*51
$GPVTG,217.09,T,228.20,M,3.60,N,6.66,K,D*22
$GPHDT,310.168,T*38
$PASHR,193104.00,310.17,T,4.14,-4.35,-0.04,2.245,0.516,1.201,1*31
$HCHDM,226.73,M*1B
$GPHDT,310.285,T*38
$GPGGA,193104.90,3552.32732665,N,07539.77548815,W,2,08,0.9,-0.684,M,-36.498,M,6.9,0131*5D
$GPVTG,218.53,T,229.63,M,3.62,N,6.70,K,D*21
$HCHDM,227.06,M*18
$PASHR,193105.00,310.28,T,4.14,-4.40,-0.04,2.194,0.522,1.171,1*32
$GPVTG,218.98,T,230.09,M,3.63,N,6.73,K,D*20
$GPHDT,310.194,T*3B
$GPGGA,193105.90,3552.32653380,N,07539.77626320,W,2,08,0.9,-0.689,M,-36.498,M,6.9,0131*5F
$HCHDM,227.22,M*1E
$PASHR,193106.00,310.27,T,4.08,-4.34,-0.04,2.199,0.525,1.170,1*3B
$GPHDT,309.982,T*3C
$GPGGA,193106.80,3552.32581702,N,07539.77696670,W,2,08,0.9,-0.685,M,-36.498,M,3.8,0131*5C
$GPVTG,217.16,T,228.27,M,3.66,N,6.78,K,D*22
$HCHDM,227.54,M*1F
$PASHR,193107.00,310.25,T,4.17,-4.38,-0.04,2.228,0.520,1.183,1*3A
$GPHDT,310.022,T*37
$GPGGA,193107.80,3552.32501969,N,07539.77775536,W,2,08,0.9,-0.685,M,-36.498,M,4.8,0131*5C
$GPVTG,218.76,T,229.86,M,3.67,N,6.80,K,D*27
$HCHDM,227.72,M*1B
$PASHR,193108.00,310.05,T,4.14,-4.47,-0.03,2.268,0.515,1.202,1*33
$GPVTG,218.45,T,229.55,M,3.69,N,6.84,K,D*23
$GPGGA,193108.70,3552.32430658,N,07539.77847541,W,2,08,0.9,-0.676,M,-36.498,M,5.7,0131*5E
$GPHDT,310.034,T*30
$HCHDM,227.53,M*18
$PASHR,193109.00,310.09,T,3.97,-4.31,-0.02,2.308,0.513,1.220,1*33
$GPGGA,193109.70,3552.32351285,N,07539.77927058,W,2,08,0.9,-0.687,M,-36.498,M,6.7,0131*5C
$GPHDT,310.112,T*35
$GPVTG,218.67,T,229.78,M,3.68,N,6.82,K,D*2B
$PASHR,193110.00,309.99,T,4.10,-4.32,-0.03,2.348,0.513,1.239,1*3C
$HCHDM,227.05,M*1B
$GPVTG,220.26,T,231.37,M,3.68,N,6.82,K,D*27
$GPHDT,310.111,T*36
$GPGGA,193110.70,3552.32271845,N,07539.78006634,W,2,08,0.9,-0.690,M,-36.498,M,6.7,0131*5E
$PASHR,193111.00,310.08,T,4.06,-4.44,-0.03,2.398,0.505,1.263,1*3E
$HCHDM,227.06,M*18
$GPHDT,310.124,T*30
$GPGGA,193111.60,3552.32200778,N,07539.78078590,W,2,08,0.9,-0.684,M,-36.498,M,6.6,0131*59
$GPVTG,220.53,T,231.63,M,3.68,N,6.82,K,D*24
$PASHR,193112.00,310.24,T,4.02,-4.47,-0.03,2.464,0.509,1.294,1*34
$HCHDM,226.90,M*16
$GPGGA,193112.60,3552.32122432,N,07539.78158717,W,2,08,0.9,-0.683,M,-36.498,M,3.6,0131*58
$GPVTG,220.83,T,231.93,M,3.67,N,6.80,K,D*2B
$GPHDT,310.084,T*3B
$PASHR,193113.00,310.25,T,4.01,-4.40,-0.03,2.531,0.513,1.326,1*32
$HCHDM,226.23,M*1E
$GPVTG,222.25,T,233.36,M,3.65,N,6.75,K,D*20
$GPHDT,310.086,T*39
$GPGGA,193113.50,3552.32052430,N,07539.78230738,W,2,08,0.9,-0.689,M,-36.498,M,4.5,0131*50
$HCHDM,226.23,M*1E
$PASHR,193114.00,310.13,T,4.07,-4.38,-0.03,2.596,0.510,1.357,1*31
$GPGGA,193114.50,3552.31975135,N,07539.78310379,W,2,08,0.9,-0.692,M,-36.498,M,5.5,0131*51
$GPHDT,309.907,T*31
$GPVTG,219.20,T,230.31,M,3.63,N,6.72,K,D*28
$HCHDM,226.23,M*1E
$PASHR,193114.00,310.13,T,4.07,-4.38,-0.03,2.596,0.510,1.357,1*31
$GPGGA,193115.50,3552.31898405,N,07539.78389471,W,2,08,0.9,-0.699,M,-36.498,M,6.5,0131*53
$GPHDT,310.075,T*35
$GPVTG,220.72,T,231.83,M,3.60,N,6.67,K,D*2A
$HCHDM,226.35,M*19
$PASHR,193115.00,310.05,T,4.19,-4.45,-0.03,2.625,0.522,1.370,1*3D
$GPHDT,310.047,T*34
$GPVTG,219.28,T,230.39,M,3.57,N,6.61,K,D*2D
$GPGGA,193116.40,3552.31829881,N,07539.78459998,W,2,08,0.9,-0.691,M,-36.498,M,7.4,0131*53
$HCHDM,226.57,M*1D
$PASHR,193116.00,310.07,T,4.15,-4.40,-0.03,2.615,0.523,1.363,1*35
$GPVTG,219.40,T,230.51,M,3.58,N,6.63,K,D*20
$GPHDT,310.137,T*32
$GPGGA,193133.60,3552.30503525,N,07539.79752654,W,2,08,0.9,-0.776,M,-36.498,M,6.6,0131*5C
$PASHR,193116.00,310.07,T,4.15,-4.40,-0.03,2.615,0.523,1.363,1*35
$HCHDM,226.52,M*18
$GPVTG,219.58,T,230.69,M,3.60,N,6.66,K,D*2C
$GPHDT,310.049,T*3A
$GPGGA,193134.60,3552.30424561,N,07539.79828076,W,2,08,0.9,-0.777,M,-36.498,M,6.6,0131*5A
$HCHDM,225.68,M*12
$PASHR,193134.00,310.11,T,4.19,-4.16,-0.06,1.965,0.509,0.996,1*3A
$GPHDT,310.002,T*35
$GPGGA,193135.50,3552.30353194,N,07539.79894721,W,2,08,0.9,-0.786,M,-36.498,M,7.5,0131*5F
$GPVTG,218.88,T,229.99,M,3.58,N,6.63,K,D*29
$HCHDM,224.97,M*13
$PASHR,193135.00,309.93,T,3.91,-4.06,-0.05,1.771,0.504,0.893,1*3E
$GPGGA,193136.50,3552.30273544,N,07539.79967949,W,2,08,0.9,-0.784,M,-36.498,M,7.5,0131*59
$GPVTG,217.30,T,228.41,M,3.57,N,6.62,K,D*2F
$GPHDT,310.041,T*32
$PASHR,193136.00,310.02,T,3.98,-4.09,-0.06,1.579,0.504,0.790,1*3E
$HCHDM,225.02,M*1E
$GPHDT,310.132,T*37
$GPVTG,216.96,T,228.07,M,3.57,N,6.60,K,D*22
$GPGGA,193137.50,3552.30193713,N,07539.80040685,W,2,08,0.9,-0.786,M,-36.498,M,4.5,0131*51
$PASHR,193137.00,310.02,T,3.89,-4.24,-0.05,1.465,0.509,0.729,1*30
$HCHDM,225.85,M*11
$GPGGA,193138.40,3552.30121638,N,07539.80105589,W,2,08,0.9,-0.785,M,-36.498,M,5.4,0131*52
$GPHDT,309.904,T*32
$GPVTG,214.61,T,225.72,M,3.58,N,6.63,K,D*2B
$PASHR,193138.00,310.07,T,3.83,-4.13,-0.05,1.396,0.516,0.692,1*30
$HCHDM,225.34,M*1B
$GPGGA,193139.40,3552.30042350,N,07539.80178096,W,2,08,0.9,-0.793,M,-36.498,M,6.4,0131*59
$GPVTG,216.62,T,227.72,M,3.54,N,6.56,K,D*22
$GPHDT,309.966,T*36
$HCHDM,224.32,M*1C
$PASHR,193139.00,310.13,T,4.23,-4.35,-0.06,1.522,0.512,0.756,1*3A
$GPVTG,216.27,T,227.38,M,3.52,N,6.52,K,D*2F
$GPGGA,193140.30,3552.29972672,N,07539.80244536,W,2,08,0.9,-0.800,M,-36.498,M,7.3,0131*57
$GPHDT,310.133,T*36
$HCHDM,224.21,M*1E
$PASHR,193140.00,310.05,T,4.17,-4.38,-0.06,1.659,0.520,0.824,1*3D
$GPGGA,193141.30,3552.29896416,N,07539.80318578,W,2,08,0.9,-0.811,M,-36.498,M,7.3,0131*5F
$GPVTG,218.24,T,229.35,M,3.49,N,6.46,K,D*2E
$GPHDT,309.958,T*3B
$HCHDM,225.88,M*1C
$PASHR,193141.00,310.06,T,4.02,-4.14,-0.07,1.732,0.518,0.858,1*38
$GPVTG,217.69,T,228.80,M,3.46,N,6.40,K,D*2E
$GPGGA,193142.30,3552.29820400,N,07539.80391277,W,2,08,0.9,-0.821,M,-36.498,M,7.3,0131*5C
$GPHDT,310.094,T*3A
$HCHDM,227.01,M*1F
$PASHR,193142.00,310.11,T,3.62,-3.95,-0.07,1.647,0.524,0.809,1*3A
$GPHDT,310.045,T*36
$GPVTG,217.22,T,228.32,M,3.42,N,6.33,K,D*28
$GPGGA,193143.20,3552.29751947,N,07539.80454363,W,2,08,0.9,-0.840,M,-36.498,M,4.2,0131*54
$HCHDM,227.14,M*1B
$PASHR,193143.00,310.10,T,3.68,-3.88,-0.09,1.502,0.536,0.731,1*37
$GPVTG,218.64,T,229.75,M,3.39,N,6.28,K,D*21
$GPHDT,310.291,T*3D
$GPGGA,193144.20,3552.29676247,N,07539.80523240,W,2,08,0.9,-0.850,M,-36.498,M,5.2,0131*5D
$HCHDM,226.92,M*14
$PASHR,193144.00,310.10,T,3.77,-3.96,-0.10,1.469,0.527,0.707,1*30
$GPHDT,310.287,T*3A
$GPGGA,193145.10,3552.29607834,N,07539.80583802,W,2,08,0.9,-0.870,M,-36.498,M,6.1,0131*53
$GPVTG,214.12,T,225.23,M,3.37,N,6.24,K,D*21
$PASHR,193145.00,310.32,T,3.69,-4.11,-0.10,1.514,0.521,0.723,1*3D
$HCHDM,226.38,M*14
$GPVTG,215.37,T,226.47,M,3.33,N,6.16,K,D*23
$GPGGA,193146.10,3552.29532688,N,07539.80650746,W,2,08,0.9,-0.878,M,-36.498,M,7.1,0131*57
$GPHDT,310.277,T*35
$HCHDM,225.21,M*1F
$PASHR,193146.00,310.21,T,3.57,-4.01,-0.12,1.500,0.533,0.711,1*35
$GPGGA,193147.10,3552.29459471,N,07539.80716507,W,2,08,0.9,-0.886,M,-36.498,M,7.1,0131*5B
$GPHDT,310.041,T*32
$GPVTG,215.54,T,226.65,M,3.26,N,6.04,K,D*21
$PASHR,193147.00,310.09,T,3.72,-4.24,-0.12,1.404,0.552,0.662,1*39
$HCHDM,224.20,M*1F
$GPHDT,310.033,T*37
$GPGGA,193204.20,3552.28227343,N,07539.81896827,W,2,08,0.9,-0.866,M,-36.498,M,7.2,0131*50
$GPVTG,215.44,T,226.54,M,3.31,N,6.14,K,D*25
$PASHR,193147.00,310.09,T,3.72,-4.24,-0.12,1.404,0.552,0.662,1*39
$HCHDM,224.42,M*1B
$GPHDT,310.095,T*3B
$GPGGA,193205.20,3552.28152289,N,07539.81964368,W,2,08,0.9,-0.874,M,-36.498,M,7.2,0131*58
$GPVTG,217.00,T,228.10,M,3.34,N,6.19,K,D*21
$PASHR,193205.00,310.07,T,4.17,-4.09,-0.02,1.230,0.530,0.538,1*31
$HCHDM,225.67,M*1D
$GPVTG,217.69,T,228.80,M,3.33,N,6.17,K,D*2E
$GPGGA,193206.20,3552.28077718,N,07539.82032410,W,2,08,0.9,-0.873,M,-36.498,M,7.2,0131*56
$GPHDT,310.244,T*35
$HCHDM,226.16,M*18
$PASHR,193206.00,310.23,T,4.14,-4.31,-0.03,1.347,0.513,0.591,1*3E
$GPVTG,214.09,T,225.20,M,3.37,N,6.25,K,D*29
$GPHDT,310.115,T*32
$GPGGA,193207.10,3552.28009736,N,07539.82094428,W,2,08,0.9,-0.887,M,-36.498,M,4.1,0131*5D
$PASHR,193207.00,310.06,T,4.08,-4.22,-0.03,1.476,0.530,0.650,1*3D
$HCHDM,226.41,M*1A
$GPHDT,310.041,T*32
$GPGGA,193208.10,3552.27935521,N,07539.82163149,W,2,08,0.9,-0.890,M,-36.498,M,5.1,0131*53
$GPVTG,216.30,T,227.40,M,3.34,N,6.19,K,D*29
$HCHDM,226.66,M*1F
$PASHR,193208.00,310.02,T,4.02,-4.30,-0.04,1.566,0.513,0.691,1*34
$GPVTG,217.21,T,228.32,M,3.37,N,6.25,K,D*2E
$GPGGA,193209.00,3552.27868133,N,07539.82226528,W,2,08,0.9,-0.901,M,-36.498,M,6.0,0131*57
$GPHDT,310.195,T*3A
$PASHR,193209.00,310.09,T,3.98,-4.19,-0.05,1.615,0.512,0.714,1*3A
$HCHDM,227.34,M*19
$GPGGA,193210.00,3552.27794044,N,07539.82296196,W,2,08,0.9,-0.908,M,-36.498,M,7.0,0131*50
$GPHDT,310.209,T*3C
$GPVTG,218.36,T,229.47,M,3.36,N,6.23,K,D*23
$HCHDM,228.79,M*1F
$PASHR,193210.00,310.21,T,4.10,-4.32,-0.05,1.749,0.513,0.818,1*3C
$GPHDT,310.129,T*3D
$GPVTG,218.35,T,229.45,M,3.38,N,6.26,K,D*29
$GPGGA,193211.00,3552.27720000,N,07539.82367408,W,2,08,0.9,-0.907,M,-36.498,M,7.0,0131*5C
$PASHR,193210.00,310.21,T,4.10,-4.32,-0.05,1.749,0.513,0.818,1*3C
$HCHDM,230.33,M*18
$GPVTG,216.71,T,227.82,M,3.37,N,6.25,K,D*2E
$GPHDT,310.043,T*30
$GPGGA,193212.00,3552.27644853,N,07539.82436648,W,2,08,0.9,-0.909,M,-36.498,M,7.0,0131*59
$PASHR,193211.00,310.13,T,3.86,-4.11,-0.05,1.843,0.517,0.894,1*30
$HCHDM,229.43,M*17
$GPGGA,193212.90,3552.27576080,N,07539.82500442,W,2,08,0.9,-0.935,M,-36.498,M,3.9,0131*5A
$GPVTG,219.57,T,230.67,M,3.44,N,6.37,K,D*2F
$GPHDT,309.956,T*35
$HCHDM,229.38,M*1B
$PASHR,193212.00,310.04,T,4.10,-4.07,-0.05,1.939,0.510,0.960,1*3B
$GPHDT,309.866,T*37
$GPVTG,216.66,T,227.76,M,3.41,N,6.32,K,D*24
$GPGGA,193213.90,3552.27501314,N,07539.82571276,W,2,08,0.9,-0.908,M,-36.498,M,4.9,0131*5B
$HCHDM,230.12,M*1B
$PASHR,193213.00,309.96,T,3.99,-4.68,-0.07,1.946,0.528,0.929,1*3A
$GPHDT,309.612,T*3A
$GPGGA,193214.80,3552.27430520,N,07539.82634887,W,2,08,0.9,-0.921,M,-36.498,M,5.8,0131*52
$GPVTG,216.04,T,227.14,M,3.49,N,6.46,K,D*2F
$HCHDM,230.69,M*17
$PASHR,193214.00,309.83,T,3.58,-4.31,-0.04,1.977,0.522,0.917,1*3E
$GPHDT,309.394,T*31
$GPVTG,220.87,T,231.98,M,3.48,N,6.45,K,D*20
$GPGGA,193215.80,3552.27355550,N,07539.82709453,W,2,08,0.9,-0.914,M,-36.498,M,6.8,0131*5F
$HCHDM,230.44,M*18
$PASHR,193215.00,309.70,T,3.70,-4.74,-0.06,2.067,0.548,0.948,1*37
$GPVTG,213.78,T,224.89,M,3.49,N,6.47,K,D*27
$GPHDT,309.355,T*3C
$GPGGA,193216.80,3552.27279089,N,07539.82783888,W,2,08,0.9,-0.922,M,-36.498,M,6.8,0131*5F
$HCHDM,230.79,M*16
$PASHR,193216.00,309.51,T,2.83,-4.58,-0.04,2.227,0.530,1.020,1*39
$GPHDT,309.227,T*38
$GPVTG,221.84,T,232.94,M,3.54,N,6.57,K,D*23
$GPGGA,193217.70,3552.27210590,N,07539.82852351,W,2,08,0.9,-0.939,M,-36.498,M,6.7,0131*5A
$HCHDM,233.33,M*1B
$PASHR,193217.00,309.08,T,3.96,-4.59,-0.05,2.341,0.512,1.082,1*38
$GPVTG,219.42,T,230.53,M,3.42,N,6.33,K,D*2E
$GPHDT,311.377,T*35

$PASHR,193218.00,308.82,T,3.78,-5.10,-0.06,2.355,0.539,1.086,1*33
$HCHDM,237.02,M*1D
$GPHDT,311.962,T*3B
$GPVTG,227.92,T,239.03,M,4.79,N,8.87,K,D*2C
$GPGGA,193235.90,3552.25665374,N,07539.84443963,W,2,08,0.9,-0.874,M,-36.498,M,6.9,0131*5B
$HCHDM,242.02,M*1F
$PASHR,193235.00,311.38,T,5.28,-4.93,-0.05,2.113,0.557,2.009,1*33
$GPGGA,193236.80,3552.25589484,N,07539.84563004,W,2,08,0.9,-0.940,M,-36.498,M,3.8,0131*59
$GPVTG,233.12,T,244.23,M,4.85,N,8.99,K,D*25
$GPHDT,311.482,T*38
$HCHDM,244.82,M*11
$PASHR,193236.00,311.45,T,5.61,-5.56,0.00,2.070,0.645,2.042,1*1C
$GPHDT,311.537,T*37
$GPVTG,234.00,T,245.10,M,4.88,N,9.04,K,D*28
$GPGGA,193237.80,3552.25504738,N,07539.84690850,W,2,08,0.9,-0.882,M,-36.498,M,4.8,0131*57
$PASHR,193237.00,311.40,T,5.16,-4.07,-0.04,1.989,0.551,2.036,1*3D
$HCHDM,246.84,M*15
$GPHDT,311.403,T*31
$GPGGA,193238.80,3552.25422984,N,07539.84831404,W,2,08,0.9,-0.918,M,-36.498,M,5.8,0131*5F
$GPVTG,232.45,T,243.56,M,5.02,N,9.31,K,D*2E
$HCHDM,249.86,M*18
$PASHR,193238.00,311.59,T,5.38,-5.75,0.00,2.037,0.607,2.141,1*15
$GPHDT,312.072,T*30
$GPGGA,193239.70,3552.25347112,N,07539.84952873,W,2,08,0.9,-0.869,M,-36.498,M,6.7,0131*51
$GPVTG,233.48,T,244.58,M,4.99,N,9.24,K,D*2C
$HCHDM,253.79,M*13
$PASHR,193239.00,311.41,T,5.35,-4.10,-0.03,2.044,0.555,2.170,1*3E
$GPHDT,312.029,T*3E
$GPVTG,239.21,T,250.31,M,5.20,N,9.64,K,D*24
$GPGGA,193240.70,3552.25263293,N,07539.85100247,W,2,08,0.9,-0.928,M,-36.498,M,6.7,0131*55
$PASHR,193240.00,312.09,T,6.11,-5.14,0.02,2.022,0.593,2.175,1*1C
$HCHDM,257.34,M*1E
$GPHDT,312.562,T*34
$GPVTG,233.99,T,245.10,M,5.27,N,9.76,K,D*2E
$GPGGA,193241.60,3552.25193297,N,07539.85233633,W,2,08,0.9,-0.876,M,-36.498,M,6.6,0131*52
$GPVTG,242.78,T,253.88,M,5.87,N,10.87,K,D*1D
$GPGGA,193242.60,3552.25101319,N,07539.85403358,W,2,08,0.9,-0.975,M,-36.498,M,3.6,0131*57
$GPHDT,312.861,T*3A
$PASHR,193242.00,312.50,T,6.96,-4.26,-0.02,1.835,0.866,2.030,1*3A
$HCHDM,263.33,M*1E
$GPHDT,313.077,T*34
$GPVTG,239.68,T,250.78,M,6.10,N,11.29,K,D*14
$GPGGA,193243.60,3552.25021675,N,07539.85586743,W,2,08,0.9,-0.883,M,-36.498,M,4.6,0131*57
$HCHDM,266.86,M*15
$PASHR,193243.00,313.03,T,5.09,-6.55,-0.05,1.976,0.767,2.201,1*30
$GPGGA,193244.50,3552.24945009,N,07539.85761517,W,2,08,0.9,-0.972,M,-36.498,M,5.5,0131*51
$GPHDT,311.600,T*30
$GPVTG,244.90,T,256.01,M,6.35,N,11.76,K,D*1C
$GPHDT,313.129,T*3E
$GPVTG,242.44,T,253.55,M,6.35,N,11.77,K,D*16
$GPGGA,193245.50,3552.24865376,N,07539.85954661,W,2,08,0.9,-0.923,M,-36.498,M,6.5,0131*55
$HCHDM,273.60,M*19
$PASHR,193245.00,312.48,T,6.70,-4.82,-0.06,1.895,0.619,1.818,1*3B
$GPVTG,249.89,T,261.00,M,6.44,N,11.93,K,D*11
$GPHDT,313.648,T*3E
$GPGGA,193246.40,3552.24803111,N,07539.86137253,W,2,08,0.9,-0.927,M,-36.498,M,7.4,0131*5B
$PASHR,193246.00,313.27,T,6.70,-6.37,-0.01,1.604,0.582,1.456,1*3A
$HCHDM,275.67,M*18
$GPVTG,241.36,T,252.47,M,6.11,N,11.32,K,D*15
$GPHDT,313.531,T*33
$GPGGA,193247.40,3552.24733847,N,07539.86328284,W,2,08,0.9,-0.934,M,-36.498,M,7.4,0131*58
$HCHDM,278.43,M*13
$PASHR,193247.00,313.37,T,4.73,-2.56,-0.05,1.464,0.587,1.264,1*3A
$GPVTG,253.05,T,264.15,M,6.28,N,11.63,K,D*1A
$GPHDT,313.994,T*30
$GPGGA,193248.30,3552.24674711,N,07539.86507966,W,2,08,0.9,-0.999,M,-36.498,M,7.3,0131*52
$PASHR,193248.00,313.56,T,6.47,-6.86,-0.08,1.473,0.540,1.220,1*3E
$HCHDM,281.51,M*16
$GPVTG,247.12,T,258.22,M,6.12,N,11.33,K,D*1E
$GPHDT,314.154,T*33
$GPGGA,193249.30,3552.24616375,N,07539.86704075,W,2,08,0.9,-0.910,M,-36.498,M,4.3,0131*59
$HCHDM,282.66,M*11
$PASHR,193249.00,314.23,T,4.46,-4.04,-0.05,1.576,0.611,1.240,1*39
$GPGGA,193306.40,3552.24244714,N,07539.91109702,W,2,08,0.9,-1.083,M,-36.497,M,7.4,0131*57
$GPHDT,275.064,T*37
$GPVTG,271.63,T,282.74,M,8.08,N,14.97,K,D*17
$PASHR,193306.00,274.90,T,0.27,-4.08,-0.13,0.171,0.507,0.114,1*31
$HCHDM,284.22,M*17
$GPHDT,275.554,T*31
$GPGGA,193307.30,3552.24256137,N,07539.91368104,W,2,08,0.9,-1.102,M,-36.497,M,4.3,0131*5C
$GPVTG,274.35,T,285.45,M,8.40,N,15.56,K,D*14
$PASHR,193307.00,275.39,T,0.21,-5.04,-0.09,0.170,0.622,0.114,1*37
$HCHDM,285.02,M*14
$GPGGA,193308.30,3552.24268979,N,07539.91649512,W,2,08,0.9,-1.055,M,-36.497,M,5.3,0131*5B
$GPVTG,272.07,T,283.17,M,8.36,N,15.48,K,D*1C
$GPHDT,275.831,T*3F
$PASHR,193308.00,275.74,T,-0.07,-3.61,-0.11,0.173,0.572,0.116,1*13
$HCHDM,286.38,M*1E
$GPGGA,193308.80,3552.24274193,N,07539.91796273,W,2,08,0.9,-1.114,M,-36.497,M,5.8,0131*5D
$GPHDT,276.480,T*3A
$GPVTG,272.99,T,284.10,M,8.41,N,15.57,K,D*15
$PASHR,193309.00,276.41,T,1.03,-5.14,-0.13,0.166,0.581,0.112,1*35
$HCHDM,288.33,M*1B
$GPGGA,193309.70,3552.24286860,N,07539.92051282,W,2,08,0.9,-1.064,M,-36.497,M,6.7,0131*50
$GPVTG,272.89,T,284.00,M,8.51,N,15.77,K,D*16
$GPHDT,277.018,T*3E
$HCHDM,291.26,M*17
$PASHR,193310.00,277.32,T,0.93,-5.69,-0.10,0.159,0.695,0.108,1*38
$GPHDT,277.495,T*3F
$GPVTG,272.90,T,284.00,M,8.28,N,15.34,K,D*17
$GPGGA,193310.70,3552.24305836,N,07539.92335009,W,2,08,0.9,-1.056,M,-36.497,M,6.7,0131*50
$PASHR,193311.00,277.82,T,0.45,-4.68,-0.03,0.162,0.571,0.110,1*33
$HCHDM,293.04,M*15
$GPVTG,277.08,T,288.19,M,8.69,N,16.09,K,D*1F
$GPHDT,278.856,T*33
$GPGGA,193311.60,3552.24324182,N,07539.92604171,W,2,08,0.9,-1.099,M,-36.497,M,6.6,0131*5E
$PASHR,193312.00,279.01,T,-0.50,-4.54,-0.09,0.155,0.519,0.106,1*14
$HCHDM,292.77,M*10
$GPGGA,193312.60,3552.24348938,N,07539.92895453,W,2,08,0.9,-1.026,M,-36.497,M,3.6,0131*5C
$GPHDT,280.148,T*32
$GPVTG,276.26,T,287.36,M,8.71,N,16.13,K,D*12
$PASHR,193313.00,280.83,T,0.31,-5.22,-0.08,0.158,0.798,0.109,1*3B
$HCHDM,291.81,M*1A
$GPVTG,277.00,T,288.11,M,8.69,N,16.09,K,D*1F
$HCHDM,290.76,M*13
$PASHR,193314.00,282.32,T,0.64,-6.04,-0.04,0.165,0.520,0.115,1*3D
$PASHR,193314.00,282.32,T,0.64,-6.04,-0.04,0.165,0.520,0.115,1*3D
$HCHDM,290.33,M*12
$GPVTG,281.18,T,292.29,M,8.82,N,16.34,K,D*14
$GPHDT,283.053,T*3A
$GPGGA,193315.50,3552.24465728,N,07539.93760029,W,2,08,0.9,-1.037,M,-36.497,M,6.5,0131*54
$HCHDM,291.52,M*14
$PASHR,193315.00,282.79,T,-0.09,-4.22,-0.08,0.168,0.548,0.118,1*11
$GPHDT,282.947,T*37
$GPVTG,279.60,T,290.71,M,8.99,N,16.64,K,D*1C
$GPGGA,193316.40,3552.24510811,N,07539.94035123,W,2,08,0.9,-1.107,M,-36.497,M,7.4,0131*59
$HCHDM,291.56,M*10
$PASHR,193316.00,283.14,T,0.09,-4.50,-0.08,0.173,0.738,0.122,1*36
$GPHDT,282.972,T*31
$GPGGA,193317.40,3552.24561721,N,07539.94352767,W,2,08,0.9,-1.074,M,-36.497,M,7.4,0131*53
$GPVTG,282.18,T,293.29,M,9.53,N,17.65,K,D*1E
$HCHDM,291.41,M*16
$PASHR,193317.00,283.00,T,0.38,-5.00,-0.05,0.170,0.720,0.121,1*30
$GPGGA,193318.30,3552.24605080,N,07539.94643486,W,2,08,0.9,-1.049,M,-36.497,M,7.3,0131*56
$GPHDT,282.288,T*3F
$GPVTG,280.17,T,291.27,M,9.68,N,17.94,K,D*19
$HCHDM,290.60,M*14
$PASHR,193318.00,282.28,T,-0.14,-3.09,-0.05,0.167,0.667,0.119,1*17
$GPHDT,281.462,T*3E
$GPVTG,279.67,T,290.78,M,10.04,N,18.59,K,D*2F
$GPGGA,193319.30,3552.24655901,N,07539.94981246,W,2,08,0.9,-1.044,M,-36.496,M,4.3,0131*56
$HCHDM,291.06,M*15
$PASHR,193319.00,281.76,T,-0.10,-3.89,-0.04,0.157,0.769,0.112,1*14
$GPHDT,281.993,T*3D
$GPGGA,193336.30,3552.25472659,N,07540.01392884,W,2,08,0.9,-0.919,M,-36.495,M,7.3,0131*51
$GPVTG,279.21,T,290.32,M,11.63,N,21.54,K,D*24
$HCHDM,292.13,M*12
$PASHR,193336.00,281.78,T,0.57,-5.57,0.04,0.130,0.533,0.097,1*11
$GPGGA,193337.30,3552.25532014,N,07540.01791966,W,2,08,0.9,-0.950,M,-36.495,M,4.3,0131*5E
$GPVTG,279.98,T,291.09,M,11.81,N,21.87,K,D*2D
$GPHDT,281.637,T*3C
$HCHDM,291.86,M*1D
$PASHR,193337.00,281.86,T,-0.24,-4.14,0.05,0.128,0.615,0.096,1*30
$GPHDT,281.455,T*3A
$GPGGA,193338.20,3552.25579317,N,07540.02150681,W,2,08,0.9,-0.927,M,-36.495,M,5.2,0131*51
$GPVTG,279.27,T,290.38,M,11.89,N,22.02,K,D*2C
$HCHDM,291.42,M*15
$PASHR,193338.00,281.38,T,0.06,-3.48,0.06,0.129,0.531,0.097,1*1F
$GPGGA,193339.20,3552.25631484,N,07540.02548111,W,2,08,0.9,-0.887,M,-36.495,M,6.2,0131*59
$GPVTG,278.33,T,289.43,M,11.74,N,21.74,K,D*2C
$GPHDT,280.941,T*33
$HCHDM,292.87,M*1F
$PASHR,193339.00,280.91,T,0.12,-3.66,0.07,0.130,0.598,0.098,1*10
$GPGGA,193340.10,3552.25678815,N,07540.02913258,W,2,08,0.9,-0.936,M,-36.495,M,7.1,0131*58
$GPVTG,280.37,T,291.47,M,11.90,N,22.04,K,D*2C
$GPHDT,280.879,T*39
$HCHDM,294.18,M*1F
$PASHR,193340.00,280.86,T,0.20,-5.30,0.04,0.128,0.565,0.096,1*1A
$GPHDT,281.897,T*38
$GPGGA,193341.10,3552.25731731,N,07540.03318196,W,2,08,0.9,-0.910,M,-36.495,M,7.1,0131*59
$GPVTG,278.87,T,289.98,M,12.03,N,22.27,K,D*23
$HCHDM,294.12,M*15
$PASHR,193341.00,281.91,T,0.04,-4.57,0.07,0.127,0.584,0.095,1*1A
$GPVTG,279.90,T,291.01,M,12.03,N,22.28,K,D*22
$GPHDT,283.075,T*3E
$GPGGA,193342.00,3552.25783393,N,07540.03683687,W,2,08,0.9,-0.917,M,-36.495,M,7.0,0131*58
$PASHR,193342.00,282.87,T,0.78,-4.89,0.06,0.127,0.518,0.095,1*11
$HCHDM,293.74,M*12
$GPVTG,281.93,T,293.04,M,12.14,N,22.49,K,D*20
$GPGGA,193343.00,3552.25850885,N,07540.04092275,W,2,08,0.9,-0.916,M,-36.495,M,4.0,0131*5E
$PASHR,193342.00,282.87,T,0.78,-4.89,0.06,0.127,0.518,0.095,1*11
$HCHDM,292.35,M*16
$GPHDT,283.892,T*3F
$GPVTG,282.59,T,293.70,M,12.31,N,22.80,K,D*24
$GPGGA,193344.00,3552.25921938,N,07540.04502791,W,2,08,0.9,-0.918,M,-36.495,M,5.0,0131*55
$HCHDM,293.11,M*11
$PASHR,193343.00,283.57,T,0.44,-4.87,0.06,0.128,0.537,0.097,1*1D
$GPHDT,283.813,T*36
$GPVTG,282.35,T,293.46,M,12.33,N,22.84,K,D*2D
$GPGGA,193344.90,3552.25988225,N,07540.04870055,W,2,08,0.9,-0.905,M,-36.495,M,5.9,0131*5A
$HCHDM,293.47,M*12
$PASHR,193344.00,283.89,T,0.07,-4.57,0.05,0.127,0.629,0.097,1*13
$GPGGA,193345.90,3552.26061190,N,07540.05278592,W,2,08,0.9,-0.903,M,-36.495,M,6.9,0131*53
$GPHDT,283.672,T*3F
$GPVTG,281.75,T,292.86,M,12.26,N,22.71,K,D*29
$PASHR,193345.00,283.89,T,-0.24,-4.25,0.05,0.128,0.641,0.098,1*35
$HCHDM,293.29,M*1A
$GPHDT,283.571,T*3F
$GPVTG,282.82,T,293.93,M,12.35,N,22.88,K,D*23
$GPGGA,193346.80,3552.26127469,N,07540.05648955,W,2,08,0.9,-0.909,M,-36.495,M,6.8,0131*5A
$HCHDM,293.38,M*1A
$PASHR,193346.00,283.74,T,0.31,-3.95,0.05,0.129,0.584,0.099,1*1B
$GPGGA,193347.80,3552.26199106,N,07540.06061244,W,2,08,0.9,-0.878,M,-36.495,M,6.8,0131*50
$GPHDT,283.426,T*3C
$GPVTG,281.91,T,293.01,M,12.36,N,22.89,K,D*2B
$GPGGA,193348.70,3552.26262171,N,07540.06427630,W,2,08,0.9,-0.842,M,-36.495,M,3.7,0131*55
$GPHDT,282.703,T*39
$GPVTG,281.20,T,292.30,M,12.22,N,22.63,K,D*23
$HCHDM,293.98,M*10
$PASHR,193348.00,283.29,T,0.32,-4.41,0.05,0.127,0.685,0.098,1*1D
$GPHDT,282.017,T*3B
$GPVTG,280.35,T,291.45,M,12.22,N,22.62,K,D*26
$GPGGA,193349.70,3552.26329714,N,07540.06842211,W,2,08,0.9,-0.882,M,-36.495,M,4.7,0131*5C
$HCHDM,295.03,M*14
$PASHR,193349.00,282.65,T,-0.15,-4.11,0.06,0.127,0.697,0.097,1*37
$GPHDT,286.413,T*3F
$GPGGA,193406.70,3552.27733317,N,07540.15053073,W,2,08,0.9,-0.791,M,-36.493,M,3.7,0131*59
$GPVTG,284.93,T,296.04,M,15.70,N,29.08,K,D*2B
$PASHR,193350.00,282.12,T,0.30,-3.39,0.07,0.128,0.504,0.097,1*1F
$HCHDM,296.69,M*1B
$GPVTG,284.67,T,295.77,M,15.54,N,28.78,K,D*27
$GPHDT,286.614,T*3A
$GPGGA,193407.60,3552.27834999,N,07540.15513291,W,2,08,0.9,-0.801,M,-36.493,M,4.6,0131*52
$HCHDM,297.33,M*15
$PASHR,193407.00,286.49,T,-0.36,-4.49,0.09,0.130,0.591,0.101,1*3E
$GPHDT,286.653,T*39
$GPVTG,285.01,T,296.12,M,15.29,N,28.31,K,D*21
$GPGGA,193408.60,3552.27944103,N,07540.16018921,W,2,08,0.9,-0.793,M,-36.493,M,5.6,0131*58
$HCHDM,296.84,M*18
$PASHR,193408.00,286.66,T,0.30,-4.19,0.07,0.128,0.649,0.101,1*13
$GPGGA,193409.50,3552.28045723,N,07540.16467366,W,2,08,0.9,-0.790,M,-36.493,M,6.5,0131*5F
$GPVTG,284.98,T,296.08,M,15.11,N,27.98,K,D*2C
$GPHDT,286.277,T*3B
$PASHR,193409.00,286.52,T,0.22,-4.42,0.06,0.128,0.607,0.100,1*12
$HCHDM,296.64,M*16
$GPGGA,193410.50,3552.28154476,N,07540.16959177,W,2,08,0.9,-0.799,M,-36.493,M,7.5,0131*5F
$GPVTG,285.10,T,296.21,M,14.87,N,27.54,K,D*28
$GPHDT,286.270,T*3C
$PASHR,193410.00,286.20,T,-0.61,-3.71,0.05,0.127,0.619,0.100,1*31
$HCHDM,296.41,M*11
$GPHDT,286.557,T*3E
$GPGGA,193411.40,3552.28248081,N,07540.17398883,W,2,08,0.9,-0.825,M,-36.493,M,7.4,0131*50
$GPVTG,285.18,T,296.29,M,14.71,N,27.24,K,D*26
$HCHDM,296.33,M*14
$PASHR,193411.00,286.43,T,0.78,-4.35,0.03,0.127,0.645,0.100,1*18
$GPGGA,193412.40,3552.28355964,N,07540.17878434,W,2,08,0.9,-0.794,M,-36.493,M,7.4,0131*5C
$GPHDT,286.229,T*30
$GPVTG,285.48,T,296.58,M,14.57,N,26.99,K,D*26
$PASHR,193412.00,286.26,T,0.48,-5.27,0.05,0.126,0.674,0.100,1*1C
$HCHDM,296.10,M*15
$GPVTG,284.87,T,295.97,M,14.47,N,26.80,K,D*2D
$GPHDT,286.268,T*35
$GPGGA,193413.30,3552.28449097,N,07540.18307736,W,2,08,0.9,-0.822,M,-36.493,M,4.3,0131*5E
$PASHR,193413.00,286.15,T,-0.31,-3.65,0.06,0.128,0.694,0.101,1*3C
$HCHDM,296.41,M*11
$GPHDT,286.035,T*3F
$GPGGA,193414.30,3552.28549994,N,07540.18777538,W,2,08,0.9,-0.789,M,-36.493,M,5.3,0131*52
$GPVTG,284.71,T,295.82,M,14.24,N,26.38,K,D*26
$HCHDM,296.08,M*1C
$PASHR,193414.00,285.98,T,0.27,-4.72,0.04,0.128,0.660,0.101,1*1F
$GPHDT,286.037,T*3D
$GPGGA,193415.20,3552.28643505,N,07540.19203392,W,2,08,0.9,-0.803,M,-36.492,M,6.2,0131*50
$GPVTG,284.34,T,295.45,M,14.31,N,26.50,K,D*26
$HCHDM,294.64,M*14
$PASHR,193415.00,286.16,T,0.01,-3.93,0.05,0.129,0.538,0.102,1*1A
$GPVTG,285.36,T,296.47,M,14.40,N,26.66,K,D*27
$GPHDT,286.156,T*3B
$GPGGA,193416.20,3552.28746080,N,07540.19678847,W,2,08,0.9,-0.780,M,-36.492,M,7.2,0131*51
$HCHDM,293.46,M*13
$PASHR,193416.00,286.13,T,0.25,-4.49,0.05,0.129,0.596,0.101,1*1D
$GPVTG,284.24,T,295.35,M,14.44,N,26.73,K,D*23
$GPGGA,193417.10,3552.28839865,N,07540.20110349,W,2,08,0.9,-0.797,M,-36.492,M,7.1,0131*54
$GPHDT,285.703,T*3E
$HCHDM,294.10,M*17
$PASHR,193417.00,285.92,T,-0.05,-3.98,0.04,0.128,0.559,0.100,1*30
$GPHDT,285.912,T*30
$GPGGA,193418.10,3552.28941879,N,07540.20588362,W,2,08,0.9,-0.815,M,-36.492,M,7.1,0131*51
$GPVTG,284.64,T,295.75,M,14.43,N,26.72,K,D*25
$PASHR,193418.00,286.01,T,0.05,-4.14,0.02,0.129,0.568,0.101,1*1C
$HCHDM,294.41,M*13
$GPHDT,286.198,T*39
$GPGGA,193419.00,3552.29032041,N,07540.21016873,W,2,08,0.9,-0.832,M,-36.492,M,4.0,0131*51
$GPVTG,285.32,T,296.43,M,14.42,N,26.70,K,D*22
$HCHDM,294.52,M*11
$PASHR,193419.00,286.25,T,0.74,-4.70,0.01,0.130,0.503,0.102,1*1A
$GPHDT,286.334,T*3D
$GPGGA,193420.00,3552.29136161,N,07540.21490925,W,2,08,0.9,-0.821,M,-36.492,M,5.0,0131*56
$GPVTG,285.13,T,296.24,M,14.35,N,26.57,K,D*25
$PASHR,193419.00,286.25,T,0.74,-4.70,0.01,0.130,0.503,0.102,1*1A
$HCHDM,293.98,M*10
$GPVTG,283.30,T,294.41,M,13.04,N,24.14,K,D*23
$GPHDT,284.931,T*30
$GPGGA,193437.00,3552.30628969,N,07540.29227486,W,2,08,0.9,-0.846,M,-36.491,M,4.0,0131*55
$PASHR,193437.00,284.91,T,0.13,-3.70,-0.01,0.135,0.611,0.104,1*33
$HCHDM,294.56,M*15
$GPGGA,193438.00,3552.30716202,N,07540.29655954,W,2,08,0.9,-0.884,M,-36.491,M,5.0,0131*5C
$GPVTG,284.55,T,295.66,M,12.86,N,23.82,K,D*20
$GPHDT,285.289,T*39
$PASHR,193437.00,284.91,T,0.13,-3.70,-0.01,0.135,0.611,0.104,1*33
$HCHDM,295.14,M*12
$GPHDT,284.850,T*36
$GPVTG,284.67,T,295.77,M,12.71,N,23.54,K,D*22
$GPGGA,193438.90,3552.30793155,N,07540.30031190,W,2,08,0.9,-0.886,M,-36.491,M,5.9,0131*5E
$HCHDM,293.47,M*12
$PASHR,193438.00,285.29,T,0.21,-4.40,-0.05,0.136,0.633,0.106,1*3E
$GPHDT,283.763,T*3E
$GPGGA,193439.90,3552.30874361,N,07540.30433981,W,2,08,0.9,-0.843,M,-36.490,M,6.9,0131*59
$GPVTG,282.83,T,293.94,M,12.23,N,22.65,K,D*21
$PASHR,193439.00,284.85,T,0.40,-3.99,-0.06,0.134,0.613,0.104,1*3D
$HCHDM,292.47,M*13
$GPHDT,283.262,T*3A
$GPVTG,281.00,T,292.11,M,11.77,N,21.80,K,D*2F
$GPGGA,193440.80,3552.30939212,N,07540.30791948,W,2,08,0.9,-0.933,M,-36.490,M,6.8,0131*52
$PASHR,193440.00,283.78,T,-0.06,-3.35,-0.01,0.134,0.733,0.104,1*1B
$HCHDM,291.09,M*1A
$GPHDT,283.237,T*3A
$GPVTG,283.71,T,294.82,M,11.41,N,21.14,K,D*2F
$GPGGA,193441.80,3552.31006887,N,07540.31171453,W,2,08,0.9,-0.921,M,-36.490,M,6.8,0131*5C
$HCHDM,291.32,M*12
$PASHR,193441.00,283.28,T,0.79,-3.92,-0.07,0.132,0.983,0.102,1*34
$GPHDT,282.607,T*3C
$GPGGA,193442.70,3552.31062779,N,07540.31494090,W,2,08,0.9,-0.917,M,-36.490,M,3.7,0131*56
$GPVTG,281.23,T,292.33,M,10.80,N,20.00,K,D*2E
$HCHDM,292.32,M*11
$PASHR,193442.00,282.89,T,-0.07,-4.23,-0.08,0.132,0.872,0.101,1*17
$GPVTG,279.92,T,291.03,M,10.39,N,19.24,K,D*2D
$GPGGA,193443.70,3552.31120563,N,07540.31845839,W,2,08,0.9,-0.983,M,-36.490,M,4.7,0131*58
$GPHDT,281.885,T*3B
$PASHR,193443.00,282.65,T,0.31,-3.65,-0.07,0.131,0.840,0.100,1*35
$HCHDM,293.19,M*19
$GPHDT,282.205,T*3A
$GPVTG,281.29,T,292.39,M,10.07,N,18.64,K,D*28
$GPGGA,193444.60,3552.31168213,N,07540.32147652,W,2,08,0.9,-0.984,M,-36.490,M,5.6,0131*5E
$HCHDM,293.40,M*15
